Código,Nome,Histórico,Foto,Autor,Inauguração,Localização,Latitude,Longitude
1,"Zumbi dos Palmares","O monumento foi idealizado por Darcy Ribeiro para homenagear um líder e fortalecer a consciência negra. Zumbi dos Palmares não teve sua fisionomia identificada, portanto, para representá-lo, Darcy  se utilizou como molde a cabeça de um rei Nigeriano do século XII, da nação Págé-Nagô, cuja peça original se encontra no Museu de Londres.","http://riomonumentos.com/cadastro/uploads/zumbi-dos-palmares.jpg","João Figueiras Lima e obra  Engenheiro Humberto Moura.","9 de novembro de 1986","Praça XI, Av. Presidente Vargas, Rio de Janeiro - RJ","-22.906886","-43.196468"
2,"Chafariz da Imperatriz","Chafariz formado por uma coluna monumental em gnaisse erguida no antigo Largo Municipal, hoje Praça Barão de Teffe,  em homenagem ao desembarque naquele local, em 1843, da Imperatriz Da. Teresa Cristina Maria, esposa de D. Pedro II.","http://riomonumentos.com/cadastro/uploads/chafariz_Imperatriz001.jpg","Bittencourt da Silva","1853","Av. Barão de Tefé, Rio de Janeiro - RJ","-22.896928","-43.187287"
3,"Pereira Passos","O monumento ao Prefeito Pereira Passos foi uma  iniciativa dos funcionários da Municipalidade, como prova de justiça e gratidão ao grande reformador da cidade.","http://riomonumentos.com/cadastro/uploads/pereira-passos.JPG","Rodolfo Bernadelli","5 de novembro de 1914","Avenida Presidente Vargas, Praça Pio X, Rio de Janeiro - RJ","-22.901193","-43.178876"
4,"Pequeno Jornaleiro","O monumento é uma homenagem aos garotos que vendiam jornais pelas ruas do Rio. Foi uma iniciativa do jornal A Noite.","http://riomonumentos.com/cadastro/uploads/pequeno-jornaleiro.jpg","Fritz (Anísio Oscar Mota)","3 de junho de 1933","Rua Sete de Setembro, Rio de Janeiro - RJ","-22.905083","-43.177867"
5,"Grande Quadrado Vermelho","Escultura abstrata em aço pintada na cor vermelha.","http://riomonumentos.com/cadastro/uploads/grande-quadrado-vermelho.JPG","Franz Weissmann","1996","Rua República do Paraguai, Rio de Janeiro - RJ","-22.907508","-43.180980"
6,"Luis de Camões","É considerado como o maior poeta de língua portuguesa por sua grande obra "Os Lusíadas". Está voltado para o Real Gabinete de Leitura.","http://riomonumentos.com/cadastro/uploads/DSC03789.jpg","desconhecido","1996","Rua Luis de Camões, Rio de Janeiro - RJ","-22.905585","-43.182090"
7,"Getúlio Vargas","O busto é uma homenagem ao presidente e estadista brasileiro e foi inaugurado 8 anos após sua morte.","http://riomonumentos.com/cadastro/uploads/getulio-vargas.jpg","Luiz Serri","24 de agosto de 1962","Praça Floriano, Rio de Janeiro - RJ","-22.911167","-43.175820"
8,"Francisco Serrador","O busto é uma homenagem da cidade ao incentivador do cinema do Brasil. Foi o idealizador e realizador da Cinelândia.","http://riomonumentos.com/cadastro/uploads/francisco-serrador.jpg","A. Coutinho","1928","Praça Floriano, Rio de Janeiro - RJ","-22.911021","-43.175859"
9,"Paulo de Frontin","O busto foi erguido por inciativa de amigos e admiradores por sua atuação como engenheiro, no dia de seu 65º aniversário.","http://riomonumentos.com/cadastro/uploads/paulo-de-frontim.jpg","Ugo Taddey","17 de setembro de 1925","Praça Floriano , Rio de Janeiro - RJ","-22.911482","-43.175685"
10,"Juscelino Kubitschek","O busto do presidente foi erguido originalmente por seus admiradores em 1961. Foi destruído em 1964. A homenagem foi reconstituída após a abertura política, em 1983 pelo escultor Zanucchi.","http://riomonumentos.com/cadastro/uploads/juceslino-kubischek.jpg","Fanucci","25 de novembro de 1983","Praça Floriano, Rio de Janeiro - RJ","-22.910779","-43.175949"
11,"Carlos Gomes","Foi colocada em frente ao Theatro Municipal, por sugestão do barítono Paulo Fortes. O monumento marcou o início da temporada lírica nacional de 1960.","http://riomonumentos.com/cadastro/uploads/carlos-gomes.jpg","Rodolfo Bernadelli (cópia)","16 de janeiro de 1960","Praça Floriano, Rio de Janeiro","-22.910069","-43.176024"
12,"João Caetano","Este monumento foi fundido em Roma e instalado inicialmente em frente à antiga Academia de Belas Artes, na Travessa das Belas Artes.  Em 24 de maio de 1916, foi transferido para esse local, em frente ao teatro que hoje leva seu nome.  A estátua está representada com os trajes do personagem principal da peça 'Oscar, filho de Ossion', uma das suas melhores representações.","http://riomonumentos.com/cadastro/uploads/joao-caetano.jpg","Francisco Manuel Chaves Pinheiro","1891","Praça Tiradentes, Rio de Janeiro - RJ","-22.906321","-43.182230"
13,"Escultura para o Rio (Pedras Portuguesas)","A escultura valoriza uma tradição do Rio de Janeiro, as calçadas de pedra portuguesa, porém na situação vertical, em seu desenho sinuoso.","http://riomonumentos.com/cadastro/uploads/escultura-para-o-rio-(pedras-portuguesas).jpg","Waltercio Caldas","20 de janeiro de 1997","Avenida Beira Mar, Rio de Janeiro - RJ","-22.911015","-43.171565"
14,"O Passante","A escultura é uma referência às milhares de pessoas que transitam diariamente pelo largo. Feita em aço corten, o autor expõe o material ao natural deixando as marcas do tempo.","http://riomonumentos.com/cadastro/uploads/o-passante.JPG","José Resende","09 de fevereiro de 1996","Largo da Carioca, Rio de Janeiro - RJ","-22.908148","-43.177812"
15,"Obra sem título","Estrutura de concreto na forma de um cilindro torcido.  A obra permite que os que transitam por ela, percebam o movimento à medida que passa pela peça.","http://riomonumentos.com/cadastro/uploads/obra-sem-titulo.gif","Ivens Machado","1995","Rua Uruguaiana, Rio de Janeiro - RJ","-22.906243","-43.178689"
17,"Obelisco ","Trata-se de um monumento comemorativo da abertura da Avenida Central (hoje Avenida Rio Branco) iniciada em 8 de março de 1904 e concluído na data de inauguracao do marco, dia 14 de novembro de 1906.","http://riomonumentos.com/cadastro/uploads/obelisco.JPG","A. Januzzi Irmão & Cia.","14 de novembro de 1906","Avenida Rio Branco, Centro, Rio de Janeiro - RJ","-22.912734","-43.174792"
18,"Cândido de Oliveira","O busto foi realizado em 1919 e colocado inicialmente na Faculdade de Direito da Universidade Federal do Rio de Janeiro. Em 1991, a prefeitura fundiu uma réplica do busto a fim de instalar em frente àquela faculdade para reconhecimento público.","http://riomonumentos.com/cadastro/uploads/candido-de-oliveira.jpg","C. Ramos","junho de 1991","Rua Moncorvo Filho, Rio de Janeiro - RJ","-22.907413","-43.190314"
19,"Portão (conjunto de 4 portões)","São quatro os portões, um em cada eixo cartesiano do parque. O portão está fixado em colunas de gnaisses com um frontispício de ferro fundido de desenho sinuoso.  Na parte superior, encontramos um arco que sustenta um medalhão, com as armas da República e abaixo uma placa com a data de 1873.  Sobre as colunas, um vaso de ferro completa o conjunto.","http://riomonumentos.com/cadastro/uploads/portao-(-conjunto-de-4-portoes).jpg","Fundição de Val d'Osne","1880","Campo de Santana, Rio de Janeiro - RJ","-22.904968","-43.189355"
20,"Bernardo Pereira de Vasconcelos","Foi o fundador do Colégio Pedro II, o primeiro grande estabelecimento de ensino secundário no país.","http://riomonumentos.com/cadastro/uploads/bernardo-pereira-de-vasconcelos.gif","Flory Gama","inauguracao em data desconhecida","Av. Passos, Rio de Janeiro - RJ","-22.901987","-43.184363"
21,"D. João VI","No ano que se comemorou o IV centenário da fundação da cidade do Rio de Janeiro, o  Governo Português, presenteou a cidade com a estátua como homenagem ao Rei de Portugal, que viveu no Brasil durante as guerras napoleônicas.","http://riomonumentos.com/cadastro/uploads/d.-joao-vi.JPG","Projeto de  Carlos Ramos foi executada por Barata Feio","10 de junho de 1965","Praça XV, Rio de Janeiro - RJ","-22.902407","-43.172928"
22,"General Osório","Trata-se de um mausoléu composto de um grande pedestal revestido de granito de Baveno, onde estão fixados dois baixos-relevos e a estátua do General Osório montado a cavalo, ligeiramente inclinado com espada em punho.","http://riomonumentos.com/cadastro/uploads/general-osorio.JPG","Rodolfo Bernadelli","12 de novembro de 1894","Praça XV, Rio de Janeiro - RJ","-22.903152","-43.174597"
23,"Princesa Isabel ","Trata-se de um marco na avenida em referência a àquela que, no dia 13 de maio de 1888, libertou os escravos no Brasil. O marco tem a efígie da princesa e atrás o texto da Lei Áurea. Foi uma doação do Metrô do Rio de Janeiro a Municipalidade.","http://riomonumentos.com/cadastro/uploads/princesa-isabel.jpg","desconhecido","Setembro de 1996","Avenida Treze de Maio , Rio de Janeiro - RJ","-22.909390","-43.176873"
24,"Villa-Lobos","Está instalado ao lado do Teatro Municipal do Rio de Janeiro, como homenagem a quem tanto contribuiu para a música brasileira.","http://riomonumentos.com/cadastro/uploads/villa-lobos.JPG","Bruno Giorgi","1959","Avenida Rio Branco , Rio de Janeiro - RJ","-22.908949","-43.176358"
25,"Marechal Floriano ","O monumento foi executado para exaltar a nacionalidade brasileira e sua formação, com grupos alegóricos lembrando indígenas, portugueses, negros e a presença católica no Brasil.","http://riomonumentos.com/cadastro/uploads/marechal-floriano.jpg","Eduardo de Sá","21 de abril de 1910","Praça Floriano, Rio de Janeiro - RJ","-22.910679","-43.175760"
26,"Teixeira de Freitas","O monumento é uma homenagem ao jurista e professor que escreveu sobre a Consolidação das Leis Civis, que projetou seu nome na história do Brasil.","http://riomonumentos.com/cadastro/uploads/teixeira-de-freitas.JPG","Rodolfo Bernadelli","7 de agosto de 1905","Avenida Marechal Câmara, Rio de Janeiro - RJ","-22.909113","-43.169634"
27,"Buarque de Macedo","A estátua ao engenheiro Manuel Buarque de Macedo foi construída por subscrição pública.  O homenageado está de pé, tendo ao seu lado um globo terrestre e junto está escrita a palavra "Agricultura".","http://riomonumentos.com/cadastro/uploads/buarque-de-macedo.JPG","Correia Lima","5 de maio de 1938","Avenia Beira Mar , Rio de Janeiro - RJ","-22.910435","-43.169192"
28,"Monumento a Paz","Trata-se de uma escultura em concreto armado em forma estilizada de ampulheta. Ao centro, caixas de vidro temperado para a colocação de areia de vários países. Na face superior, existe uma abertura para colocar terras de várias partes do mundo. Nas paredes do monumento, está gravado no concreto as palavras “Paz Mundial” em 28 idiomas.","http://riomonumentos.com/cadastro/uploads/180713121249-monumento_a_paz01.jpg","Siron Franco","14 de julho de 1992","Praça 22 de Abril, Rio de Janeiro - RJ","-22.910493","-43.168691"
29,"Monumento a Santos Dumont","Trata-se de um conjunto escultórico de placas de granito encaixadas. Nos blocos, foram inseridas as esculturas, sendo o maior destaque a figura de Santos Dumont e acima deste a figura do Ícaro prestes a voar. Além desses elementos, têm-se peças de avião e figuras humanas caídas.","http://static.panoramio.com/photos/large/8722741.jpg","Amadeu Zani","23 de outubro de 1942","Praça Salgado Filho, Rio de Janeiro - RJ","-22.911618","-43.167765"
30,"Solar Windsurfer (Leveza da Pedra)","A peça é em mármore de carrara esculpida de um bloco monolítico de mármore de carrara, onde foram cortadas por linhas verticais profundas que se direcionam para o centro da peça.","http://riomonumentos.com/cadastro/uploads/solar-windsurfer-(-leveza-da-pedra).jpg","Jesper Neergaard","Outubro de 2001","Praça Senador Salgado Filho, Rio de Janeiro - RJ","-22.910540","-43.167342"
31,"Lampadário","É o primeiro lampadário artístico da cidade e foi inaugurado na comemoração da abertura da Av. Mem de Sá. Uma composição de gnaisse e bronze, cuja execução ficou a cargo da Fundição Brasileira de Ferro e Bronze Kobler & Cia. Lembra as grandes navegações portuguesas, com velas e animais marinhos. No seu topo, está uma esfera armilar.","http://riomonumentos.com/cadastro/uploads/lampadario.jpg","Rodolfo Bernadelli","12 de novembro de 1906","Largo da Lapa , Rio de Janeiro - RJ","-22.914242","-43.178048"
32,"Arcos da Lapa ","É a maior obra pública de engenharia século XVIII. Sua construção de pedra e argila, em estilo romano, em dupla arcada tem quarenta e dois arcos. Era um aqueduto trazendo as águas das nascentes do Rio Carioca até o Largo da Carioca.","http://riomonumentos.com/cadastro/uploads/180713111152-arcos_da_lapa01.jpg","A obra foi dirigida pelo Brigadeiro Apoim","durante os anos de 1744 a 1750","Largo da Lapa, Rio de Janeiro - RJ","-22.912867","-43.179908"
33,"General Santander","A estátua foi oferecida pelo governo colombiano ao Brasil, em gesto de cordialidade. A estátua do general colombiano está com uniforme militar e uma larga capa sobre os ombros, tendo na mão esquerda a sua espada e na direita um rolo de papel. Está sobre pedestal de mármore branco.","http://riomonumentos.com/cadastro/uploads/general-santander.gif","Francisco Victor Palma","12 de dezembro de 1941","Praça Santander, Avenida Rio Branco, Rio de Janeiro - RJ","-22.912719","-43.174149"
35,"Ana Néri","Este monumento foi erguido numa resolução formada na Terceira Conferência Interamericana, realizada no Rio de Janeiro em 1935, onde contribuíram as Sociedades Nacionais da Cruz Vermelha dos seguintes países: Argentina, Bolívia, Brasil, Canadá, Chile Colômbia, Costa Rica, Cuba, Equador, Estados Unidos, Guatemala, Haiti, Honduras, México, Nicarágua, Paraná, República Dominicana, São Salvador, Uruguai e Venezuela.","http://riomonumentos.com/cadastro/uploads/ana-neri.gif","Praça Cruz Vermelha – Centro","29 de dezembro de 1956","Praça Cruz Vermelha, Rio de Janeiro - RJ","-22.911758","-43.188214"
36,"Amizade entre os Povos","Este monumento, teve a estátua obtida por subscrição do povo dos Estados Unidos da América do Norte, sob os auspícios da America Chamber of Comner for Brazil, em comemoração ao centenário da Independência do Brasil. A obra tem uma figura feminina de pé, sustentando na mão direita uma palma de louros.","http://riomonumentos.com/cadastro/uploads/amizade.gif","Benevenuto Berna","4 de julho de 1931","Praça IV de Julho, Rio de Janeiro - RJ","-22.911996","-43.173490"
37,"Francisco Mignone","O monumento foi realizado por iniciativa do Embaixador Vicente Paulo Gatti, dirigente da Ordem dos Músicos do Brasil no Estado do Rio de Janeiro, que mandou fundir para oferecer à prefeitura. O homenageado foi professor de regência do Instituto Nacional de Música no Rio de Janeiro e diretor do Theatro Municipal do Rio.","http://riomonumentos.com/cadastro/uploads/180713121226-Francisco_01.jpg","Bruno Giorgi","1988","Rua do Passeio, Rio de Janeiro - RJ","-22.913769","-43.177998"
38,"Mascate","A peça foi criada em 1964 pela Confederação Nacional do Comércio e pelo Departamento Nacional do Senac, com a finalidade de homenagear empresários que se destacam por sua contribuição ao desenvolvimento do país. Em 1991, se tornou a figura de um mascate, comerciante que se dedicava a vender os mais variados produtos de uso pessoal e doméstico em distantes lugares. Se tornou um monumento público.","http://www.monumentosdorio.com.br/img/escultura/013/rua/gra/027.gif","Honório Peçanha","18 de novembro de 1991","Rua Buenos Aires, Rio de Janeiro - RJ","-22.905466","-43.184933"
39,"Sebastião Leme","A homenagem ao Cardeal foi consagrada por esse monumento, um agradecimento da Pátria.","http://riomonumentos.com/cadastro/uploads/18071301100-sebastiao_leme01.jpg","Maria da Glória Viana Patrasso","1951","Rua do Santana, Rio de Janeiro - RJ","-22.907757","-43.194319"
40,"José Bonifácio de Andrada e Silva","O monumento foi erguido para a comemoração do  cinquentenário da Independência do Brasil, por iniciativa do Instituto Histórico e Geográfico Brasileiro, em homenagem ao patriarca da Independência.","http://riomonumentos.com/cadastro/uploads/jose-bonifacio-de-andrada-e-silva.JPG","Louis Rochet","7 de setembro de 1872","Largo São Francisco de Paula , Rio de Janeiro - RJ","-22.905119","-43.180856"
41,"Saturnino Soares Meirelles","Este busto foi erguido, por iniciativa do Instituto Hahnemanniano do Brasil, em homenagem ao fundador e presidente da instituição.","http://riomonumentos.com/cadastro/uploads/saturnino-soares-meirelles.jpg","desconhecido","desconhecido","Praça Cruz Vermelha, Rio de Janeiro - RJ","-22.911973","-43.188648"
42,"Marechal Deodoro da Fonseca","O monumento é um mausoléu onde estão os restos mortais do Marechal Deodoro e de sua esposa. O monumento tem 23 metros de altura e pesa 850 toneladas. No topo, está o fundador da República, o Marechal Deodoro, com conjuntos dos vultos históricos da época da proclamação, bem como sua mãe, Da. Rosa Paulina da Fonseca.","http://riomonumentos.com/cadastro/uploads/marechal-deodoro-da-fonseca.gif","Modestino Kanto com colaboração de Honório Peçanha","15 de novembro de 1937","Praça Deodoro, Rio de Janeiro - RJ","-22.914012","-43.175138"
43,"Melvin Jones","Este monumento é uma homenagem ao fundador do Lions Club Internacional.","http://riomonumentos.com/cadastro/uploads/marco-a--melvin-jones.jpg","desconhecido","16 de abril de 1977","Praça Mário Lago, Centro, Rio de Janeiro - RJ","-22.906222","-43.176530"
44,"Assis Chateaubriand","A homenagem a Assis Chateaubriand partiu do Jornal do Comércio, que solicitou autorização à prefeitura para instalar o monumento reverenciando o jornalista, empresário, mecenas e político. Foi também advogado, professor de direito, escritor e membro da Academia Brasileira de Letras.  ","http://www.monumentosdorio.com.br/img/escultura/013/rua/gra/008.gif","desconhecido","1993","Rua da Candelária, Rio de Janeiro - RJ","-22.901795","-43.176880"
45,"Mestre Valentim","O monumento foi realizado quando das comemorações do centenário de sua morte. Valentim foi o primeiro a fundir peças em bronze e ferro. De extraordinário gênio inventivo e requintado gosto artístico, tornou-se famoso, não só pelas variadas obras civis e religiosas que executava, mas era procurado pelos ourives e cinzeladores da época.","http://riomonumentos.com/cadastro/uploads/18071301103-valentim_da_fonseca01.jpg","Joaquim Moreira Júnior","1 de março de 1913","Passeio Público - Rua do Passeio - Rio de Janeiro","-22.913142","-43.177093"
46,"Castro Alves","O monumento é uma bela criação de Eduardo Sá, que executou um pedestal com uma representação marajoara, com pedras de diferentes tonalidades em uma composição original. A peça de meio corpo com um instrumento de corda nas mãos em refinado acabamento enobrece a homenagem.","http://riomonumentos.com/cadastro/uploads/180713111159-castro_alves01.jpg","Eduardo Sá","1913","Passeio Público - Rua do Passeio - Rio de Janeiro","-22.913293","-43.176303"
47,"Chiquinha Gonzaga","A homenagem partiu da Sociedade Cultural de Chiquinha Gonzaga. Chiquinha foi a primeira mulher brasileira a assinar partitura, chegando a realizar 77 peças teatrais e mais de duas mil composições musicais. Foi a compositora que melhor traduziu o ritmo brasileiro num estilo original.","http://riomonumentos.com/cadastro/uploads/chiquinha-gonzaga.jpg","Honório Peçanha","17 de outubro de 1942","Passeio Público - Rua do Passeio - Rio de Janeiro","-22.913435","-43.177420"
48,"Rodolfo Bernadelli","A homenagem a Bernadelli foi realizada por seu discípulo, Correia Lima, que gravou no bronze sua intenção: Ao prof. Rodolfo Bernadelli.","http://riomonumentos.com/cadastro/uploads/rodolfo-bernadelli.jpg","Correia Lima","Desconhecidos","Passeio Público - Rua do Passeio - Rio de Janeiro","-22.912608","-43.176496"
49,"Irineu Marinho","A homenagem a Irineu Marinho está situada na entrada do parque voltado para a Lapa. Irineu foi um realizador da imprensa brasileira, fundou a folha 'A noite' e, em 1925, o jornal O Globo.","http://riomonumentos.com/cadastro/uploads/180713121230-irineu_marinho01.jpg","Benevenuto Berna","10 de março de 1937","Passeio Público - Rua do Passeio - Rio de Janeiro","-22.913173","-43.177154"
50,"Pedro Américo","Na galeria dos grandes artistas brasileiros que foram homenageados no Passeio Público, o pintor Pedro Américo, que realizou o grandioso quadro 'Independência ou Morte', é um dos monumentos de nossa história.","http://riomonumentos.com/cadastro/uploads/180713121252-pedro_americo01.jpg","Paulo Mazzucchelli","Desconhecida","Passeio Público - Rua do Passeio - Rio de Janeiro","-22.914063","-43.176357"
51,"Gonçalves Dias","A homenagem a Gonçalves Dias foi a primeira a ser instalada no parque.  Gonçalvez Dias introduziu o indianismo na literatura nacional com exaltação da cultura indígena.","http://riomonumentos.com/cadastro/uploads/goncalves-dias.JPG","Rodolfo Bernadelli","2 de julho 1901","Passeio Público - Rua do Passeio - Rio de Janeiro","-22.913669","-43.176699"
52,"Francisco Braga","Francisco Braga compôs todos os gêneros de músicas religiosas e profanas, para vozes e instrumento, solos, conjuntos de câmara, orquestra, teatro e bandas militares. Entre suas composições, se destaca “Hino à Bandeira” que tem a letras de Olavo Bilac.","http://riomonumentos.com/cadastro/uploads/francisco-braga.JPG","Paulo Mazzucchelli","1935","Passeio Público - Rua do Passeio - Rio de Janeiro","-22.913698","-43.176971"
53,"Raimundo Correia","Raimundo Correia foi jornalista, advogado e membro da Academia Brasileira de Letras e foi homenageado pela beleza de seus sonetos de caráter popular.","http://riomonumentos.com/cadastro/uploads/raimundo-correia.JPG","Honório Peçanha","novembro de 1944","Passeio Público - Rua do Passeio - Rio de Janeiro","-22.913182","-43.176537"
54,"Vitor Meirelles","Victor Meireles é outro artista homenageado que foi professor de pintura histórica da Academia de Belas Artes, tendo realizado como principais telas "A passagem do Humaitá” e a “Batalha do Riachuelo”.","http://riomonumentos.com/cadastro/uploads/vitor-meirelles.JPG","Eduardo Sá","1925","Passeio Público - Rua do Passeio - Rio de Janeiro","-22.913779","-43.177296"
55,"Alberto Nepomuceno","O monumento foi realizado em sua homenagem por seu destaque como nacionalista de uma extensa obra, com numerosas composições para piano, violoncelo e órgão.","http://riomonumentos.com/cadastro/uploads/180713111150-alberto_nepomuceno01.jpg","Rodolfo Bernadelli","1910","Passeio Público - Rua do Passeio - Rio de Janeiro","-22.913596","-43.177521"
56,"Plácido de Castro","Plácido de Castro é o único militar que está homenageado no Passeio Público. O monumento foi erguido em sua homenagem por estabelecer para o Brasil o estado do Acre.","http://riomonumentos.com/cadastro/uploads/180713121255-placido_castro01.jpg","Shnoorr","1973","Passeio Público - Rua do Passeio - Rio de Janeiro","-22.912666","-43.176286"
57,"Olavo Bilac","Olavo Bilac é outro importante escritor que foi instalado no Passeio Público. Jornalista e poeta, Bilac tem no seu monumento um painel onde está representado seu poema épico, 'O caçador de esmeraldas', expressando seu nacionalismo. Foi membro fundador da Academia Brasileira de Letras.","http://riomonumentos.com/cadastro/uploads/180713121250-olavo_bilac01.jpg","Humberto Cozzo","desconhecida","Passeio Público - Rua do Passeio - Rio de Janeiro","-22.913031","-43.176713"
58,"Pirâmides","As pirâmides foram construídas em blocos de gnaisse no governo do Conde dos Arcos (D. Marcos de Noronha de Britto). Tem cerca de 15m de altura e 2m em cada face do quadrilátero inferior. Em cada uma delas, há uma inscrição realizada em mármore de lioz: “A Saudade do Rio” e, na outra, “Ao Amor do Público”. Essas pirâmides foram o último trabalho público do Mestre Valentim.","http://riomonumentos.com/cadastro/uploads/180713121254-piramide01.jpg","Mestre Valentim","construídas no período de 1794 a 1806","Passeio Público - Rua do Passeio - Rio de Janeiro","-22.913625","-43.176057"
59,"Portão Monumental","Mestre Valentim criou um portão de ferro fundido no estilo Barroco, fixado em dois pilares de pedra de gnaisse. Por cima do portão, tem-se um medalhão de bronze dourado com efígies da Rainha D. Maria I e de seu marido. O portão tem elementos em granito e mármore de lizo.","http://riomonumentos.com/cadastro/uploads/portao-monumental.JPG","Mestre Valentim","provavelmente em 1783","Passeio Público - Rua do Passeio - Rio de Janeiro","-22.913072","-43.177174"
60,"Menino 'Sou Util Inda Brincando'","Originalmente, a fonte era composta por um menino de mármore segurando um cágado, que lançava água num barril de gnaisse. A legenda 'Sou útil, ainda que brincando' acompanhava a escultura. A peça foi substituída por uma cópia de chumbo fundida, em 1841, e, em 2004, por uma peça em bronze.","http://riomonumentos.com/cadastro/uploads/escultura-do-menino.jpg","Mestre Valentim","provavelmente em 1783","Passeio Público - Rua do Passeio - Rio de Janeiro","-22.913808","-43.175940"
61,"Inverno","Estátua neoclássica, em ferro fundido, da figura de uma mulher sobre um pedestal, também em ferro fundido, realizada nas Fundições de Val d’Osne, França.","http://riomonumentos.com/cadastro/uploads/inverno(passeio).JPG","Mathurin Moreau","provavelmente em 1860","Passeio Público - Rua do Passeio - Rio de Janeiro","-22.913288","-43.176302"
62,"Verão","Estátua neoclássica, em ferro fundido, da figura de um homem sobre um pedestal, também em ferro fundido, realizada nas Fundições de Val d’Osne, França.","http://riomonumentos.com/cadastro/uploads/verao(passeio).JPG","Mathurin Moreau","provavelmente em 1860","Passeio Público - Rua do Passeio - Rio de Janeiro","-22.912934","-43.176978"
63,"Outono","Estátua neoclássica, em ferro fundido, da figura de um homem sobre um pedestal, também em ferro fundido, realizada nas Fundições de Val d’Osne, França.","http://riomonumentos.com/cadastro/uploads/outono(passeio).jpg","Mathurin Moreau","provavelmente em 1860","Passeio Público - Rua do Passeio - Rio de Janeiro","-22.913262","-43.177268"
64,"Primavera","Estátua neoclássica, em ferro fundid da figura de uma mulher sobre um pedestal, também em ferro fundido, realizada nas Fundições de Val d’Osne, França.","http://riomonumentos.com/cadastro/uploads/primavera(passeio).JPG","Mathurin Moreau","provavelmente em 1860","Passeio Público - Rua do Passeio - Rio de Janeiro","-22.913645","-43.176718"
65,"Tritão","A escultura Tritão é uma das obras de Nicolino, que realizou diversas peças para embelezar os espaços públicos, principalmente na Quinta da Boa Vista.","http://riomonumentos.com/cadastro/uploads/18071301121-chafariz_senhor01.jpg","Nicolina Pinto Couto","1910, réplica realizada em 2004","Passeio Público - Rua do Passeio - Rio de Janeiro","-22.913780","-43.176710"
66,"Quiosque","Um dos poucos exemplares dos antigos quiosques que existiram nas ruas do Rio de Janeiro, implantados no início do século XX, para venda de pequenas mercadorias. No Passeio Público, existem dois quiosques de madeira.","http://riomonumentos.com/cadastro/uploads/180713121257-quiosque_passeio01.jpg","desconhecido","desconhecido","Passeio Público - Rua do Passeio - Rio de Janeiro","-22.913440","-43.176213"
67,"Ponte de Ferro","A ponte de ferro fundido é uma peça produzida pelas Fundições de Val d'Osne, França, imitando troncos de árvores amarrados e entrelaçados, próprio do estilo romântico introduzido por Glaziou no parque.","http://riomonumentos.com/cadastro/uploads/ponte-de-ferro.jpg","desconhecido","provavelmente em 1860","Passeio Público - Rua do Passeio - Rio de Janeiro","-22.913691","-43.176138"
68,"Recanto Glaziou","Este recanto, construído em rocailles (argamassa) imitando pedras, é próprio do estilo romântico introduzido pelo paisagista Glaziou.  Neste recanto, de um lado existe um banco formado por pedras artificiais e, do outro, uma pequena cascata.","http://www.passeiopublico.com/maispasseio/04-06/img/mat1_05.jpg","Glaziou","provavelmente em 1860","Passeio Público - Rua do Passeio - Rio de Janeiro","-22.912790","-43.176563"
69,"Fonte do Jacaré","O Chafariz dos Jacarés é a primeira tentativa de estilização de animais da fauna nacional. Outra inovação de Valentim é o fato dele ter feito a água sair da boca de animais e não das tradicionais carrancas. Do conjunto original do Chafariz dos Jacarés, não restou quase nada, a não ser o próprio corpo da fonte e os jacarés.","http://riomonumentos.com/cadastro/uploads/fonte-do-jacare.jpg","Mestre Valentim","provavelmente em 1763","Passeio Público - Rua do Passeio - Rio de Janeiro","-22.913777","-43.175998"
70,"Luta Desigual","Trata-se de grupo escultórico que representa o combate entre um homem e um felino. O conjunto está sobre uma pedra de rocaille, um dos elementos criados pelo paisagista francês Auguste Marie Glaziou.","http://riomonumentos.com/cadastro/uploads/luta-desigual.gif","L. Despres","provavelmente em 1888","Campo de Santana, Rio de Janeiro - RJ","-22.907626","-43.189265"
71,"Pescador Napolitano","Escultura de um menino brincando com uma tartaruga em mármore. Esta peça foi apresentada no Salão de Paris em 1831 e foi trazida para o Brasil.","http://riomonumentos.com/cadastro/uploads/pescador-napollitano.jpg","François Rude","inaugurada no parque em data desconhecida","Campo de Santana, Rio de Janeiro - RJ","",""
72,"Inverno","Trata-se de uma peça em mármore de carrara de um homem idoso, encolhido e coberto por um refinado planejamento da cabeça aos pés.","http://riomonumentos.com/cadastro/uploads/inverno(campo-de-santana).JPG","Paul Jean Baptista Gasg","1906","Campo de Santana, Rio de Janeiro - RJ","",""
73,"Verão","É uma escultura neoclássica de um homem em mármore, protegendo os olhos do sol.","http://riomonumentos.com/cadastro/uploads/verao-(campo-de-santana).JPG","Paul Jean Baptiste Gasp","1906","Campo de Santana, Rio de Janeiro - RJ","",""
74,"Outono","É uma escultura de uma mulher olhando em direção a uma cesta de vime cheia de frutas.","http://riomonumentos.com/cadastro/uploads/outono-(campo-de-santana).jpg","Gustave Frédéric Michel","1906","Campo de Santana, Rio de Janeiro - RJ","",""
75,"Primavera","É uma escultura representando uma mulher com movimentos leves e um pequeno sorriso segurando um arranjo de flores.","http://riomonumentos.com/cadastro/uploads/primavera-(campo-de-santana).JPG","Gustave Frédéric Michel","1906","Campo de Santana, Rio de Janeiro - RJ","",""
76,"Pontes de rocailles (conjunto de 2 pontes)","Trata-se de duas pontes de rocailles (argamassa decorada) imitando grande troncos de árvores.","http://riomonumentos.com/cadastro/uploads/pontes-de-rocailles-(-conjunto-de-2-pontes).JPG","Glaziou ","1888","Campo de Santana, Rio de Janeiro - RJ","",""
77,"Quiosques (Guaritas - conjunto de 4 quiosques)","Trata-se de quatro quiosques de madeira, um dos poucos exemplares dos antigos quiosques que existiram nas ruas da Cidade, implantados pelo prefeito Pereira Passos para venda de pequenas mercadorias.","http://riomonumentos.com/cadastro/uploads/quiosques-(guaritas--conjunto-de-4-quiosques).jpg","desconhecido","1888","Campo de Santana, Rio de Janeiro - RJ","",""
78,"Jovem Europa (conjunto de 4 fontes)","Trata-se de um busto representando uma jovem figura feminina, em ferro fundido das Fundições de Val d´Osne, fixado em uma fonte stela também em ferro, de onde, através de uma bica, jorra água. São atualmente quatro peças no centro do parque.","http://riomonumentos.com/cadastro/uploads/jovem-europa-(-conjunto-de-4-fontes).jpg","Mathurin Moreau","1888 ","Campo de Santana, Rio de Janeiro - RJ","",""
79,"Vicente Celestino ","Trata-se de representação da cabeça de fisionomia de Vicente Celestino, um agradecimento ao povo carioca.","http://riomonumentos.com/cadastro/uploads/vicente-celestino .JPG","Tito Bernucci ","4 de agosto de 1970","Campo de Santana, Rio de Janeiro - RJ","",""
80,"Catulo da Paixão Cearense","Trata-se de representação da cabeça de fisionomia de Sinhô, um agradecimento ao povo carioca.","http://riomonumentos.com/cadastro/uploads/catulo-da-paixao-cearense.JPG","Tito Bernucci","4 de agosto de 1970","Campo de Santana, Rio de Janeiro - RJ","",""
81,"Sereia","É uma escultura de ferro fundido das Fundições do Val d´Osne, França. A peça é da figura de uma sereia segurando em uma das mãos um peixe, de onde jorra água.","http://riomonumentos.com/cadastro/uploads/sereia.JPG","Provin Serres","provavelmente inaugurada junto com o parque em 1888 ","Campo de Santana, Rio de Janeiro - RJ","",""
82,"Benjamim Constant ","O monumento apresenta diversos fatos históricos ligados à pátria e humanidade. No alto, a figura da Humanidade, no centro, a figura de Benjamim Constant e a esposa trazendo a bandeira republicana. O Monumento foi oferecido à cidade pelo Sr. Amaro da Silveira.","http://riomonumentos.com/cadastro/uploads/benjamim-constant .jpg","Décio Vilares e Eduardo de Sá","14 julho de 1926","Campo de Santana, Rio de Janeiro - RJ","",""
83,"Barão de Mauá – Praça Mauá","A iniciativa da construção de um monumento a Mauá teve origem no Clube de Engenharia. A estátua do homenageado está apoiada numa coluna dórica de 8,30m de altura, talhada em granito irajá. A estátua apresenta mão ao alto, tendo na mão o chapéu alto e a bengala.","http://riomonumentos.com/cadastro/uploads/18071301131-visconde_de_maua01.jpg","Rodolfo Bernadelli","30 de abril de 1910","Rua Candelária, Rio de Janeiro - RJ","-22.901656","-43.176952"
84,"Pedro Max","A homenagem foi o reconhecimento pelo seu destaque como diretor da Escola Naval, como chefe do Estado Maior da Armada e Ministro e por sua participação em operações de guerra na Europa.","http://riomonumentos.com/cadastro/uploads/pedro-max.JPG","Leão Veloso","Praia do Flamengo em 1954 e na Praça Mauá em 11 de novembro de 1998","Praça Mauá, Rio de Janeiro - RJ","-22.896526","-43.180698"
85,"Pedro I ","Primeiro monumento construído no Brasil, foi idealizado no ano em que se comemorava os 50 anos da 1º Constituição Brasileira. Trata-se de um monumento de gratidão do povo brasileiro ao Imperador D. Pedro I.","http://riomonumentos.com/cadastro/uploads/pedro-i.jpg","Louis Rochet a partir do desenho de João Maximiniano Mafra","30 de março de 1862","Praça Tiradentes, Rio de Janeiro - RJ","-22.906929","-43.182807"
86,"Justiça","A obra neoclássica personifica os ideais valorizados pela filosofia positivista de Auguste Comte. Foram idealizadas e fundidas na França, nas Fundições do Val d´Osne, e trazidas para o Brasil para adornar a Praça, num conjunto com o Monumento a D. Pedro I.","http://riomonumentos.com/cadastro/uploads/justica.JPG","Mathurin Moreau","1863","Praça Tiradentes, Rio de Janeiro - RJ","-22.907150","-43.183248"
87,"Lealdade ","A obra neoclássica personifica os ideais valorizados pela filosofia positivista de Auguste Comte. Foram idealizadas e fundidas na França, nas Fundições do Val d´Osne, e trazidas para o Brasil para adornar a Praça, num conjunto com o monumento a D. Pedro I.","http://riomonumentos.com/cadastro/uploads/lealdade.JPG","Mathurin Moreau","1863","Praça Tiradentes, Rio de Janeiro - RJ","-22.906895","-43.182302"
88,"União","A obra neoclássica personifica os ideais valorizados pela filosofia positivista de Auguste Comte. Foram idealizadas e fundidas na França, nas Fundições do Val d´Osne, e trazidas para o Brasil para adornar a Praça, num conjunto com o monumento a D. Pedro I.","http://riomonumentos.com/cadastro/uploads/uniao.jpg","Mathurin Moreau ","1863","Praça Tiradentes, Rio de Janeiro - RJ","-22.906768","-43.182408"
89,"Liberdade","A obra neoclássica personifica os ideais valorizados pela filosofia positivista de Auguste Comte. Foram idealizadas e fundidas na França, nas Fundições do V'Dosne, e trazidas para o Brasil para adornar a Praça, num conjunto com o monumento a D. Pedro I.","http://riomonumentos.com/cadastro/uploads/liberdade.jpg","Mathurin Moreau ","1863","Praça Tiradentes , Rio de Janeiro - RJ","-22.906963","-43.183305"
90,"Pixinguinha","A peça foi baseada na foto de um ensaio realizado por Pixinguinha, em Nova York, em 1963. Anos depois, Alfredo Viana Neto, filho de Pixinguinha, ficou impressionado com a réplica de seu pai e, quando surgiu a oportunidade de homenagear o compositor, sugeriu a obra de Dumovich.","http://riomonumentos.com/cadastro/uploads/pixinguinha.JPG","Otto Dumovich","23 de abril de 1995","Travessa do Ouvidor, Rio de Janeiro - RJ","-22.903590","-43.177611"
91,"Girardet","Augusto Giorgio Girardet, por ter sido o maior gravador do Brasil, e ,seguramente, um dos mais notáveis do continente americano.","http://riomonumentos.com/cadastro/uploads/girardet.jpg","Correia Lima","29 de dezembro de 1945","Praça Mahatma Ghandi, Rio de Janeiro - RJ","-22.912442","-43.175772"
92,"Evaristo da Veiga","A homenagem a Adolfo Bergamini é decorrente a sua importância como advogado.","http://riomonumentos.com/cadastro/uploads/evaristo-da-veiga.JPG","Laurindo Ramos","30 de junho de 1940","Praça Mahatma Ghandi, Rio de Janeiro - RJ", "-22.912273","-43.175724"
93,"Adolfo Bergamini ","Trata-se de um dos Prefeitos homenageados pela cidade, guardando assim a sua importância histórica.","http://www.monumentosdorio.com.br/img/escultura/013/praca/gra/005.gif","Leão Veloso","1946","Praça Mahatma Ghandi, Rio de Janeiro - RJ","-22.912153","-43.175441"
94,"Catulo da Paixão Cearense","Poeta do povo, Catulo foi um dos mais populares de sua época que foi homenageado com o monumento.","http://www.monumentosdorio.com.br/img/escultura/013/praca/gra/013.gif","Honório Peçanha","11 de janeiro de 1940","Praça Mahatma Ghandi, Rio de Janeiro - RJ","-22.912627","-43.175253"
95,"Mahatma Gandhi","Presente da Índia ao Brasil. Mahatma Gandhi é um dos maiores líderes pacifistas do mundo, que foi doado ao Brasil lembrando como símbolo da não violência.","http://riomonumentos.com/cadastro/uploads/mahatma-gandhi.jpg","Sankho Chanduri","14 de agosto de 1969","Praça Mahatma Ghandi, Rio de Janeiro - RJ","-22.912209","-43.176008"
96,"Chafariz Monumental do Jardim do Monroe","Esse é o maior chafariz artístico em ferro fundido do Brasil. Foi adquirido em 1878 pelo Governo Imperial de D. Pedro II. De intensa beleza, não só pelas suas dimensões como pela beleza das figuras e ornatos que o compõem. Foi instalado na Praça XV de Novembro, no Rio de Janeiro, capital do Império. Durante o Governo Carlos Lacerda, em decorrência das obras para a construção da Av. Perimetral (1962) foi transferido para a Praça da Bandeira, ali permanecendo até 1978, quando foi transferido para a sua atual localização.","http://riomonumentos.com/cadastro/uploads/chafariz-monumental-do-jardim-do-monroe.jpg","Mathurin Moreau","1880","Praça Mahatma Ghandi, Rio de Janeiro - RJ","-22.912443","-43.175476"
97,"Chafariz do Mestre Valentim","A pedido do governador Gomes Freire de Andrade, o chafariz foi destinado a melhoria do abastecimento de água para a população. Mestre Valentim foi encarregado pelo Vice-Rei do Brasil, D. Luis de Vasconcelos, do trabalho de remoção do chafariz para beira-mar. Sua função foi abastecer de água os navios que chegavam à cidade, sendo importante para a formação da mesma. Trata-se de belo trabalho de estilo barroco todo executado em gnaisse e mármore de lioz.","http://riomonumentos.com/cadastro/uploads/chafariz-do-mestre-valentim.jpg","Mestre Valentim","1789","Praça XV, Rio de Janeiro - RJ","-22.902693","-43.173873"
98,"João Cândido ","O monumento faz parte da história do negro no Brasil, não apenas porque João Cândido era negro, mas também porque a Revolta das Chibatas foi protagonizada por uma maioria de marinheiros negros. As classes mais baixas da Marinha, por serem compostas de rapazes muito pobres, estavam ainda sujeitas a castigos físicos de açoitamento. O monumento foi doado à cidade pela Secretaria Especial de Igualdade Racial.","http://riomonumentos.com/cadastro/uploads/joao-candido .jpg","Valter Brito","22 de novembro de 2007","Praça XV, Rio de Janeiro - RJ","-22.902029","-43.173084"
99,"Fonte o Amor e a Lira","Inicialmente, foi instalada numa estação de abastecimento da CEDAE (Companhia Estadual de Águas e Esgotos) e transferida para a área pública para adornar a cidade. É uma peça francesa das Fundições do Val D'Osne.","http://riomonumentos.com/cadastro/uploads/fonte-do-amor-a-lira.gif","Eugéne Louis Lequerne","instalado nos anos 50 do século XX","Largo da Carioca, Rio de Janeiro - RJ","-22.906615","-43.177917"
100,"Escultura Módulo 6.5 - Monumento à Integração dos Povos da América","A obra foi doada à cidade pela Associação Comercial do Rio de Janeiro, encomendada para marcar o encerramento do encontro da Câmara Interamericana de arbitragem Comercial e da Associação Íbero-Americana de Câmaras de Comércio do Rio de Janeiro, contudo havia no local a estátua de João Paulo ll. Por isso, foi instalada em frente ao Centro Administrativo de São Sebastião (CASS).","http://riomonumentos.com/cadastro/uploads/escultura-modulo-6.5---monumento-a-integracao-dos-povos-da-america.JPG","Ascannio MMM","14 de maio de 1997","Rua Afonso Cavalcanti, Rio de Janeiro - RJ (em frente ao CASS)","-22.910463","-43.205083"
101,"Chafariz da Dança das Águas","O chafariz, chamado pelo autor de Dança das Águas, é inspirado nas figuras femininas da antiga Grécia. A 'Oceania', que representa as águas do oceano, a “Nereida“, que representa a água dos mares, e “Naiades” as águas das fontes.","http://riomonumentos.com/cadastro/uploads/chafariz-da-danca-das-aguas.jpg","Remo Bernucci","Glória em 1964 e transferido para a frente do CASS em 2002","Rua Afonso Cavalcanti, 455","-22.910892","-43.206447"
102,"Monumento a Edson Luis","O monumento foi doado pela  Secretaria Extraordinária dos Direitos Humanos à cidade do Rio de Janeiro para homenagear o jovem Edson Luis, morto no período da ditatura.","http://www.monumentosdorio.com.br/img/escultura/013/praca/gra/020.gif","Cristina Rozzobon ","28 de março de 2008","Praça Ana Amélia","-22.908994","-43.171588"
103,"Âncora","Trata-se de uma âncora de um navio brasileiro doada pela Marinha do Brasil para adornar o espaço público.","http://riomonumentos.com/cadastro/uploads/ancora.jpg","desconhecido","26 de maio de 2012","Praça Marechal Âncora, Rio de Janeiro - RJ","-22.904270","-43.170959"
104,"Visconde de Inhaúma ","Trata-se de uma doação da Marinha de Guerra do Brasil à cidade do Rio de Janeiro para adornar a área próxima ao I Distrito Naval e homenagear uma personalidade da história do Brasil.","http://riomonumentos.com/wp-content/themes/seconserva/img/THUMB_fotos.jpg","Fundido no Arsenal de Guerra","22 de abril de 2012","Av Alfredo Agache, Rio de Janeiro - RJ","",""
105,"Joaquim Nabuco","O monumento foi uma solicitação do presidente da Academia Brasileira de Letras, Marcos Villaça, à Prefeitura da Cidade, em homenagem ao patrono da Academia nas festividades do centenário de sua morte.","http://riomonumentos.com/cadastro/uploads/joaquim-nabuco.jpg","Otto Dumovich ","17 de março de 2011","Avenida Presidente Wilson","-22.910215","-43.172318"
106,"Manuel Bandeira ","O monumento foi uma solicitação da Academia Brasileira de Letras, através do seu presidente Marcos Vilaça, ao Prefeito da Cidade, em comemoração ao centenário de Manuel Bandeira.","http://riomonumentos.com/cadastro/uploads/180713121244-manoel_bandeira01.jpg","Otto Dumovich ","19 de abril de 2007","Avenida Presidente Wilson","-22.910034","-43.172465"
107,"Ritmo","A escultura foi uma doação da empresa ECISA à cidade para adornar o prédio da Academia Brasileira de Letras.","http://www.monumentosdorio.com.br/img/escultura/013/avenida/gra/026.jpg","Bruno Giorgi","junho de 1985","Avenida Presidente Wilson","-22.909900","-43.172380"
108,"Chafariz da Mulher com Ânfora","Foi uma encomenda da prefeitura em 1934 a Humberto Cozzo para esconder o ar-condicionado do Theatro Municipal. Foi transferida e inaugurada na Praça Pio XI. A escultura chamada pelo artista de Oferenda está no centro do lago, que tem a forma de rosa, com um jato de água saindo da ânfora.","http://riomonumentos.com/cadastro/uploads/chafariz-da-mulher-com-anfora.jpg","Humberto Cozzo","1934 na Praça Floriano Peixoto e em 1988 na Praça Pio X","Praça Pio X, Rio de Janeiro - RJ","-22.900594","-43.177036"
109,"Barão do Rio Branco","Essa escultura é de Charpentier e o monumento idealizado por Leão Veloso. Foi uma  iniciativa do “Jornal do Commércio”, que promoveu uma subscrição pública para sua construção.","http://riomonumentos.com/cadastro/uploads/barao-do-rio-branco.jpg","Felix Charpentier","semelhante a existente no Palácio de Itamarati, inaugurado em 7 de setembro de 1943","Praça do Expedicionário, Rio de Janeiro - RJ","-22.906553","-43.172099"
110,"Escadaria Selarón","Trata-se da decoração, com mosaicos, da escadaria, com 215 degraus e 125m de comprimento, que liga a Lapa ao bairro de Santa Teresa, na cidade do Rio de Janeiro. Usando inicialmente cores da bandeira brasileira, — verde, amarelo e azul —, deu início à colocação dos azulejos por ocasião da Copa do Mundo de Futebol de 1994. Ao longo do tempo, foram fixados azulejos inteiros, ou em cacos, originários de muitos países.","http://riomonumentos.com/cadastro/uploads/180713121210-escadaria_da_lapa01.jpg","Jorge Selarón","iniciada em 1994","Rua Manuel Carneiro, Santa Teresa, Rio de Janeiro - RJ","-22.915229","-43.179081"
111,"Lima Barreto","Este monumento foi um pedido da Casa Lima Barreto à Prefeitura da Cidade para homenagear nas comemorações do nascimento do escritor brasileiro.","http://riomonumentos.com/cadastro/uploads/180713121237-lima_barreto01.jpg","Edgar Duvivier","12 de março de 2012","Rua do Lavradio, Rio de Janeiro - RJ","-22.911013","-43.182429"
112,"Marquês do Lavradio","O monumento foi uma doação à cidade do Rio de Janeiro pelo Quarteirão Cultural da Rua do Lavradio, do busto em bronze do Marquês do Lavradio, - 3° Vice-Rey do Brasil e primeiro morador da Rua do Lavradio em 1777.","http://riomonumentos.com/cadastro/uploads/lima-barreto.jpg","desconhecido","15 de setembro de 2012","Rua do Lavradio, Rio de Janeiro - RJ","",""
113,"Antonio Januzzi","O monumento foi uma doação da ONG Ital Rio para a prefeitura do Rio. Antonio Jannuzzi chegou ao Brasil em 1874 e, com seu estilo eclético, foi responsável pela construção de vários prédios. Sua maior obra foi a construção da Avenida Rio Branco.","http://riomonumentos.com/cadastro/uploads/antonio_jannuzzi001.jpg","desconhecido","2 de junho de 2012","Rua 7 de setembro, Rio de Janeiro - RJ","-22.904848","-43.177544"
114,"Terra ","Escultura abstrata do mais importante artista neoconcretista do Brasil.","http://riomonumentos.com/cadastro/uploads/18071301101-terra01.jpg","Franz Weissmann ","1984","Rua da Assembleia, Rio de Janeiro - RJ","-22.904012","-43.174701"
115,"Coluna Média em Cantoneira ","Escultura abstrata do mais importante artista neoconcretista do Brasil.","http://riomonumentos.com/cadastro/uploads/180713121205-coluna_media_cantoneira01.jpg","Franz Weissmann","1977","Av Marechal Câmara, Rio de Janeiro - RJ","-22.909196","-43.169820"
116,"Cápsula do Tempo (Bandeirantes)","O monumento é um grande bloco quadrado rústico de granito em homenagem ao jubileu de ouro do Movimento Bandeirante no Brasil.","http://riomonumentos.com/cadastro/uploads/180713111155-capsula_tempo01.jpg","desconhecido","1969","Av Presidente Wilson, Rio de Janeiro - RJ","-22.909386","-43.169904"
117,"Duque de Caxias ","O monumento foi erguido, inicialmente na antiga Praça Duque de Caxias, atualmente Largo do Machado. Quando se construiu o prédio do Ministério do Exército, na Av. Presidente Vargas, providenciou-se um concurso público para a construção de um monumento a Duque de Caxias, Patrono do Exército. Contudo, a solução encontrada foi a transferência do monumento existente no Largo do Machado. A estátua foi fundida nas oficinas Thiebot, em Paris.","http://riomonumentos.com/cadastro/uploads/duque-de-caxias .JPG","Rodolfo Bernadelli ","Largo do Machado em 15 de agosto de 1899 e na Av. Presidente Vargas em 30 de agosto de 1949","Praça Duque de Caxias, Rio de Janeiro - RJ","-22.904070","-43.189229"
118,"João Goulart","O busto do ex-presidente João Goulart foi encomendado pelo Clube dos Subtenentes e Sargentos do Exército e moldado em gesso por Alfredo Ceschiatti. Foi fundida no Arsenal de Marinha somente 38 anos depois.","http://riomonumentos.com/cadastro/uploads/presidente-joao-goulard .jpg","Alfredo Ceschiatti","13 de março de 2002","Praça Cristiano Ottoni, Rio de Janeiro - RJ","-22.903949","-43.190845"
119,"Antonio Silveira","Homenagem ao ex-chanceler, embaixador Antonio Azeredo da Silveira, é um marco com uma placa em bronze.","http://riomonumentos.com/cadastro/uploads/marco_a_silveirinha001.jpg","Embaixada do Rio e Janeiro","29 de novembro de 2012","Espaço Rio Branco, Rio de Janeiro - RJ","",""
120,"Vaso de Ferro Fundido","Estes vasos de ferro fundido foram executados e instalados inicialmente na Praça Floriano, nos anos 80 do século XX. Foram retirados pelo projeto Rio Cidade Centro para o novo paisagismo da praça. Um dos vasos foi transferido para o largo para adornar aquele espaço.","http://riomonumentos.com/cadastro/uploads/18071301128-vaso_de_ferro_fundido01.jpg","Emilio Gianelle ","anos 70 do século XX, fundição Luporini","Avenida Presidente Vargas, esquina com Rua Uruguaiana, Rio de Janeiro - RJ","-22.901848","-43.180866"
121,"João Paulo II ","Esse monumento foi uma iniciativa da Prefeitura da Cidade do Rio de Janeiro, na organização do Encontro Mundial das Famílias com o Papa João Paulo II, incluindo no programa a visita do Papa à cidade para marcar indelevelmente a estada do Papa no Rio.","http://riomonumentos.com/cadastro/uploads/180713121232-joao_paulo_i01.jpg","Mario Agostinelli","4 de outubro de 1997","Avenida República do Chile, Rio de Janeiro - RJ","-22.909790","-43.181087"
122,"José Patrocínio ","Trata-se de um marco com uma placa em bronze com a figura do homenageado conduzido com uma figura alegórica.","http://riomonumentos.com/cadastro/uploads/180713121235-jose_do_patrocinio01.jpg","projetado por Rodolfo Amoedo","com escultura de Ruffo Fanucchi, a data de inauguracao é desconhecida","Rua México, Rio de Janeiro - RJ","-22.909249","-43.175284"
123,"Escultura à Cultura","Trata-se de uma escultura composta por dois jovens caminhando.","http://riomonumentos.com/cadastro/uploads/180713121223-escultura_a_cultura01.jpg","Bruno Giorgi","1947","Avenida Graça Aranha, Rio de Janeiro - RJ","-22.909758","-43.173743"
124,"Machado de Assis","A estátua de Machado de Assis, localizada na Av. Presidente Wilson, na frente da Academia Brasileira de Letras, foi erigida por subscrição popular em comemoração ao 90º aniversário do nascimento do ilustre escritor.","http://riomonumentos.com/cadastro/uploads/180713121243-machado_de_assis01.jpg","Humberto Cozzo","21 de junho de 1929","Avenida Presidente Wilson, Rio de Janeiro - RJ","-22.910642","-43.172942"
125,"Marcílio Dias","Este monumento foi doado à cidade do Rio de Janeiro pelo Clube Naval. Em 1983, devido a um acidente, foi colocada na frente do Comando do 1° Distrito Naval em 1988.","http://www.monumentosdorio.com.br/img/escultura/013/praca/gra/035.gif","Luis Paes Leme","11 de junho de 1948 e em 1988 na Praça Barão de Ladario","Praça Barão de Ladario, Rio de Janeiro - RJ","-22.899048","-43.177052"
126,"Conde Cunha ","O monumento é uma homenagem ao fundador do Arsenal do Rio de Janeiro, o Vice Rei do Brasil, Conde Cunha.","http://riomonumentos.com/wp-content/themes/seconserva/img/THUMB_fotos.jpg","Luis Paes Leme","8 de julho de 1949","Praça Barão de Ladario, Rio de Janeiro - RJ","",""
127,"Barão de Ladario","O monumento é a efígie do Barão, um herói da Marinha do Brasil, que teve seu nome como um dos grandes defensores dos limites do Brasil.","http://riomonumentos.com/wp-content/themes/seconserva/img/THUMB_fotos.jpg","Joceil","1989","Praça Barão de Ladario, Rio de Janeiro - RJ","",""
128,"Júlio de Castilhos","O busto de Júlio de Castilhos estava guardado no depósito da prefeitura desde os anos 80 do séc. XX. Por iniciativa da Casa de Deodoro, a prefeitura realizou a cessão do uso do busto, com o intuito de garantir sua integridade bem como sua exposição em espaço público.","http://riomonumentos.com/cadastro/uploads/180713121236-julio_castilhos01.jpg","desconhecido","Casa de Deodoro em 15 de novembro de 2011","Praça da República, 197","",""
129,"Grandjean de Montiny ","Este monumento foi inicialmente instalado na Quinta da Boa Vista e está sob guarda da Casa França-Brasil.","http://riomonumentos.com/wp-content/themes/seconserva/img/THUMB_fotos.jpg","Nicolina Pinto do Couto","1912","Rua Visconde de Itaboraí, 78 - Rio de Janeiro - RJ","",""
130,"Cascata  dos Deuses","Trata-se de um conjunto escultórico composto por duas figuras masculinas, executadas em argamassa que protegem uma cascata.","http://riomonumentos.com/wp-content/themes/seconserva/img/THUMB_fotos.jpg","desconhecido","desconhecido","Praça dos Expedicionários, Rio de Janeiro - RJ","",""
131,"Ismael Silva","O monumento foi uma solicitação da Escola de Samba Estácio de Sá à Prefeitura do Rio para homenagear o primeiro a fundar o bloco que se tornaria o precursor da primeira escola de samba de que se tem notícia: a Deixa Falar.","http://riomonumentos.com/wp-content/themes/seconserva/img/THUMB_fotos.jpg","Otto Dumovich","14 de setembro de 2010","Largo Ismael Silva, Rio de Janeiro - RJ","",""
132,"Cascata","A cascata é uma construção em que blocos de rocailles imitam pedra para formar um conjunto de gruta e cascata com estalactites e estalagmites.","http://riomonumentos.com/wp-content/themes/seconserva/img/THUMB_fotos.jpg","Glaziou","1880","Campo de Santana, Rio de Janeiro - RJ","",""
133,"Rui Barbosa","O monumento é uma homenagem a um dos principais juristas brasileiros. Rui Barbosa foi também político, diplomata, escritor, filósofo e tradutor.","http://riomonumentos.com/wp-content/themes/seconserva/img/THUMB_fotos.jpg","Deocleciano Martins de Oliveira Filho","1966","Rua Dom Manuel, Rio de Janeiro - RJ","",""
134,"Chafariz do Lagarto","Foi construído por determinação do Vice Rei Luiz de Vasconcelos, que priorizou o fornecimento de água na Cidade para atender a população da região.","http://riomonumentos.com/wp-content/themes/seconserva/img/THUMB_fotos.jpg","Mestre Valentim","1786","Rua Frei Caneca, Rio de Janeiro - RJ","",""
135,"Chafariz Paulo Fernandes","Foi construído pelo Intendente Paulo Fernandes Vianna para abastecer a população da região. Este chafariz, próximo ao do Lagarto, foi construído com um reservatório.","http://riomonumentos.com/wp-content/themes/seconserva/img/THUMB_fotos.jpg","desconhecido","1816","Rua Frei Caneca, Rio de Janeiro - RJ","",""
136,"Chafariz do Riachuelo","Foi construído pelo Intendente Paulo Fernandes Vianna para abastecer a população da região.","http://riomonumentos.com/wp-content/themes/seconserva/img/THUMB_fotos.jpg","desconhecido","1817","Rua do Riachuelo, Rio de Janeiro - RJ","",""
137,"Ladeira da Misericórdia","A Ladeira da Misericórdia foi a primeira via pública da cidade do Rio de Janeiro. No alto dela, estava situado o Largo do Castelo com o prédio do Colégio dos Padres Jesuítas da Companhia de Jesus. Após a demolição do Morro do Castelo, em 1922, restou o pequeno trecho inicial, que apesar de terminar abruptamente, ainda apresenta o seu calçamento original.","http://riomonumentos.com/wp-content/themes/seconserva/img/THUMB_fotos.jpg","desconhecido","1567","Ladeira da Misericórdia, Rio de Janeiro, RJ","",""
138,"Marechal Bittencourt","O homenageado foi Ministro da Guerra, durante o governo de Prudente de Morais, e comandou o Exército Brasileiro na Guerra de Canudos. Foi assassinado em 5 novembro de 1897 ao defender o presidente de um atentado.","http://riomonumentos.com/wp-content/themes/seconserva/img/THUMB_fotos.jpg","José Otávio Correa Lima","1898","Museu Histórico Nacional, Rio de Janeiro - RJ","",""
139,"Aviadores","Trata-se de um bloco de pedra com uma aguaia em bronze no seu topo representando os aviadores.","http://riomonumentos.com/wp-content/themes/seconserva/img/THUMB_fotos.jpg","desconhecido","desconhecido","Praça Salgado Filho, Rio de Janeiro - RJ","",""
140,"Paulo Sampaio","Este monumento é uma homenagem àquele que foi o pioneiro da aviação comercial no Brasil, com a empresa Panair do Brasil.","http://riomonumentos.com/cadastro/uploads/paulo-sampaio.jpg","desconhecido","29 de setembro de 2002","Praça Mal. Âncora - Rio de Janeiro - RJ","",""
141,"Atilio Correia Lima","Este monumento homenageia o arquiteto que projetou  a Estação de Hidroavião na mesma praça onde, hoje, é o Clube da Aeronáutica.","http://riomonumentos.com/cadastro/uploads/atilio-correia-lima.jpg","C. Pincy","1994","Praça Marechal Âncora, Rio de Janeiro - RJ","",""
142,"Pavilhão Nacional","Desde 1917 o espaço recebe oficialmente a denominação de Praça da Bandeira.","http://riomonumentos.com/cadastro/uploads/pavilhao-nacional.jpg","Artur","desconhecido","Praça da Bandeira, Rio de Janeiro - RJ","",""
143,"A Música","Trata-se de um dos estudos de Bernadelli para a execução da peça que iria ser instalada na fachada do Theatro Municipal, em construção na época.","http://riomonumentos.com/cadastro/uploads/a-musica.jpg","Rodolfo Bernadelli","1906","Av. Pasteur - Rio de Janeiro - RJ","",""
144,"Gradil do Espaço Guignard","A construção deste gradil foi uma inciativa da prefeitura para revitalizar a área.  A intenção do artista foi homenagear o escultor Guinard.  A construção do gradil foi dividido entre a prefeitura e a Petrobras.","http://riomonumentos.com/cadastro/uploads/gradil-do-espaco-guinard.jpg","Franz Weissmann","20 de setembro de 1996","","",""
145,"Monsenhor Mathathias Gomes","Este monumento foi uma solicitação do Rev. Guilhermino, da Igreja Presbiteriana, à Prefeitura da Cidade para homenagear o reverendo daquela congregação religiosa.","http://riomonumentos.com/cadastro/uploads/monsenhor-mathathias-gomes.jpg","Joás Pereira Passos","7 de julho de 2002","Rua Gustavo de Lacerda - Rio de Janeiro - RJ","",""
146,"Aos 450 anos dos Anglicanos","Em frente a uma grande mesa em bronze, destacam-se as figuras de Pierre Richier e Guillaume Chartier, em bronze, de pé próxima a uma taça. Na frente da grande mesa, está a inscrição “Em memória de mim”. Monumento comemorativo do culto reformado com a celebração da Santa Ceia no Brasil e nas Américas.","http://riomonumentos.com/wp-content/themes/seconserva/img/THUMB_fotos.jpg","Joás Pereira dos Passos","21 de março de 2007","Rua Gustavo de Lacerda - Rio de Janeiro - RJ","",""
147,"João Calvino","Obra em homenagem ao fundador do Calvinismo, uma forma de protestantismo cristão, durante a Reforma Protestante.  O monumento foi uma solicitação da Igreja Presbiteriano à Prefeitura do Rio de janeiro pelas comemorações da reforma religiosa.","http://riomonumentos.com/cadastro/uploads/joao-calvino.jpg","Joás Pereira dos Passos","10 de julho de  2009","Rua Gustavo de Lacerda - Rio de Janeiro - RJ","",""
148,"Álvaro Reis","O conjunto escultórico apresenta o Rev. Álvaro Reis com duas crianças próximas. Foi um monumento idealizado pelo Rev. Guilhermino Cunha ao Prefeito da Cidade para homenagear o fundador do INPAR, uma instituição da obra social da Igreja Presbiteriana.","http://riomonumentos.com/wp-content/themes/seconserva/img/THUMB_fotos.jpg","Joás Pereira dos Passos","30 de dezembro de 2010","Rua Visconde Duprat - Rio de Janeiro - RJ","",""
149,"Modestino Kanto","O monumento é um marco com a efígie de Modestino Kanto como uma homenagem dos colegas de magistério.","http://riomonumentos.com/cadastro/uploads/modestino-kanto.jpg","Honório Peçanha","8 de setembro de 1969","Rua Benedito Hipólito, Rio de Janeiro - RJ","",""
150,"Cascata de Burle Marx","Após as obras do Metrô do Rio de Janeiro, a praça recebeu um novo tratamento paisagístico, com a implantação do projeto de Burle Max, com a cascata em calhas de concreto aparente e jorros verticais num jardim aquático.","http://riomonumentos.com/cadastro/uploads/cascata-de-burle-marx.jpg","Burle Max","1981","Largo da Carioca, Rio de Janeiro - RJ","",""
151,"Chafariz das Três Velas","É um chafariz composto por três estruturas de concreto armado de tamanhos diferentes. Quando o chafariz funciona, a água sai do topo das estruturas como se estivesse acendendo uma vela.","http://riomonumentos.com/cadastro/uploads/chafariz-das-tres-velas.jpg","Renato Primavera Marinho","1992","Parque Noronha Santos, Rio de Janeiro - RJ","",""
152,"Grande Arco","A marca do Sambódromo é o arco localizado na extremidade sul, na Praça da Apoteose.","http://riomonumentos.com/cadastro/uploads/grande-arco.jpg","Oscar Niemeyer","1984","Rua Marquês de Sapucaí, Rio de Janeiro - RJ","",""
153,"Evandro Lins e Silva","O busto foi uma homenagem do IBMEC ao ilustre jurista, na comemoração da adoção da Praça IV de Julho e do novo espaço revitalizado.","http://riomonumentos.com/cadastro/uploads/evandro-lins-e-silva.jpg","Ceschiatti","10 de outubro de 2007","Praça Santander, Rio de Janeiro - RJ","",""
154,"Imperatriz Tereza Cristina","A homenagem à Imperatriz foi o resultado entre a Prefeitura do Rio e o Consulado da Itália. Faz parte das comemorações dos 200 anos da vinda da Família Real portuguesa para o Brasil.","http://riomonumentos.com/cadastro/uploads/imperatriz-tereza-cristina.jpg","José Luiz Ribeiro","29 de novembro de 2008","Praça Itália, Rio de Janeiro - RJ","",""
155,"Chafariz do Museu Histórico Nacional","O chafariz faz parte do conjunto paisagístico desenvolvido para a antiga Praça Marechal Âncora.","http://riomonumentos.com/cadastro/uploads/chafariz-do-museu-historico-nacional.jpg","Escritório Burle Marx & Cia. Ltda","2003","Praça Marechal Âncora, Rio de Janeiro - RJ","",""
156,"Vênus Reclinado","Peça de aço corte, uma expressão do corpo como forma de vencer a instabilidade e o peso.","http://riomonumentos.com/cadastro/uploads/venus-reclinado.jpg","Zé Resende","peça de 1991 e data de inauguracao desconhecida","Rua do Rosário, Rio de Janeiro - RJ","",""
157,"Elevando-se","Peça de aço corte, com cortes retos.","http://riomonumentos.com/cadastro/uploads/elevando-se.jpg","Zé Resende","2005","Rua do Rosário, Rio de Janeiro - RJ","",""
158,"O Portal ","A obra é uma cessão de uso da família do artista à cidade do Rio de Janeiro.  A peça estava em Minas Gerais, no Instituto Amilcar de Castro, e a cessão foi patrocinada pela Galeria Silvia Cintra + BOX 4.","http://riomonumentos.com/cadastro/uploads/o-portal .jpg","Amilcar de Castro","13 de setembro de 2012","Praça Pio X, Rio de Janeiro - RJ","",""
159,"Cristiano Ottoni","O monumento foi erguido em praça pública, em frente à antiga estação ferroviária. Quando das reformas na área, o monumento foi transferido e está na fachada do prédio da Central do Brasil.","http://riomonumentos.com/cadastro/uploads/cristiano-ottoni.jpg","Rodolfo Bernadelli","inaugurado em 29 de março de 1908","Praça Cristiano Ottoni, Rio de Janeiro - RJ","",""
160,"Vasos ","São vasos de ferro fundido, um conjunto de 8 peças, instalados inicialmente na Praça Floriano. Depois das obras do Rio Cidade no Centro, estes foram transferidos para a Av. Presidente Vargas.","http://riomonumentos.com/cadastro/uploads/vasos .jpg","Emilio Gianelle","anos 70 do século XX, fundição Luporini","Avenida Presidente Vargas, Rio de Janeiro - RJ","",""
161,"Gradil do Campo de Santana","O gradil de ferro fundido foi instalado em todo o perímetro do parque, no mesmo modelo de outro histórico, o Passeio Público.","http://riomonumentos.com/cadastro/uploads/gradil-do-campo-de-santana.jpg","Fundição Zanatta Ltda.","1968","Campo de Santana, Rio de Janeiro - RJ","",""
162,"Gradil do Passeio Público","O gradil de ferro fundido foi instalado em todo o perímetro do parque, no mesmo modelo de outro histórico, o Campo de Santana.","http://riomonumentos.com/cadastro/uploads/gradil-do-passeio-publico.jpg","Fundição Zanatta Ltda .","1968","Passeio Público - Rua do Passeio - Rio de Janeiro","",""
163,"Entrada do Túnel João Ricardo","As suas obras foram iniciadas em 1919.  A sua abertura visava solucionar um dos problemas de tráfego à época na cidade: a comunicação entre a zona portuária e a Estação Central do Brasil.","http://riomonumentos.com/cadastro/uploads/entrada-do-tunel-joao-ricardo.jpg","desconhecido","1921","Gamboa, Rio de Janeiro - RJ","",""
164,"Lago ","O lago sinuoso contornando o parque é uma das características do jardim romântico, implantado no séc. XIX, sendo um dos elementos decorativos mais importantes.","http://riomonumentos.com/cadastro/uploads/lago(campo-de-santana).jpg","Glaziou","1888","Campo de Santana, Rio de Janeiro - RJ","",""
165,"Lago ","O lago sinuoso contornando o parque é uma das características do jardim romântico, implantado no séc. XIX, sendo um dos elementos decorativos mais importantes.","http://riomonumentos.com/cadastro/uploads/lago(passeio-publico).jpg","Glaziou","1888","Passeio Público - Rua do Passeio - Rio de Janeiro","",""
166,"Santa Bárbara","O painel de Santa Bárbara foi concebido em homenagem às vítimas de um desabamento durante os trabalhos de abertura do Túnel Santa Bárbara. Inicialmente, se situava numa capela localizada em uma gruta acima do túnel. Em 1984, devido às precárias condições, foi desmontado. Em 1990, quando foi restaurado pela Fundação Roberto Marinho, firmaram acordo entre o Governo do Estado e o Museu Nacional de Belas Artes, foi transferido.","http://riomonumentos.com/cadastro/uploads/santa-barbara.jpg","Djanira","1964","Museu Nacional de Belas Artes, Rio de Janeiro - RJ","",""
167,"Lago ","A praça foi o primeiro projeto de ajardinamento público feito por Burle Marx e o lago com plantas aquáticas, um dos elementos decorativos mais importantes.","http://riomonumentos.com/cadastro/uploads/lago(praca-salgado-filho).gif","Burle Marx","1952","Praça Salgado Filho, Rio de Janeiro - RJ","",""
168,"Murada  de Pedra","Foi construído pelo Intendente Paulo Fernandes Vianna para a contenção e construção do Chafariz Paulo Fernandes.","http://riomonumentos.com/cadastro/uploads/murada-de-pedra.jpg","desconhecido","1816","Rua Frei Caneca, Rio de Janeiro - RJ","",""
169,"Oratório da Nossa Senhora do Cabo  Boa Esperança","Construído em 1763, foi transferido em 1812 para a esquina seguinte, onde hoje se abre a Rua Sete de Setembro, retornando ao local original em 1924.","http://riomonumentos.com/cadastro/uploads/oratorio-da-nossa-senhora-do-cabo- boa-esperanca.gif","Mestre Alves Setúbal ","1763","Rua do Carmo, 38, Centro, Rio de Janeiro","",""
170,"Sérgio Cardoso","Trata-se de uma homenagem ao ator brasileiro que fez grande sucesso na televisão nos anos 70 do séc. XX.","http://riomonumentos.com/wp-content/themes/seconserva/img/THUMB_fotos.jpg","Maylota","1973","Largo do Guimarães, Rio de Janeiro - RJ","",""
171,"Fonte do Chororó","Trata-se de um reservatório de água para captação de água natural. É um dos poucos que ainda mantém a inscrição PN (Patrimônio Nacional).","http://riomonumentos.com/cadastro/uploads/fonte-do-chororo.jpg","desconhecido","desconhecido","Rua Almirante Alexandrino, Rio de Janeiro - RJ","",""
172,"Murada e Gradil","Trata-se de uma murada e um guarda corpo de ferro fundido, na rua Almirante Alexandrino, na  trilha que acompanhava os canos do Aqueduto da Carioca. O largo foi aberto em 1857.","http://riomonumentos.com/cadastro/uploads/murada-e-gradil.JPG","desconhecido","desconhecido","Largo dos Guimarães, Rio de Janeiro - RJ","",""
173,"Murada ","Sua construção ocorreu em decorrência de sucessivos desmoronamentos na encosta. No séc. XIX, a rua Aprazível era um importante logradouro para o escoamento de diversos gêneros.","http://riomonumentos.com/cadastro/uploads/murada.jpg","desconhecido","1859","Rua Aprazível, Rio de Janeiro - RJ","",""
174,"Piso em Pé-de-Moleque","Pavimentação típica das cidades brasileiras a partir do séc. XVIII. É um dos locais onde ainda se preserva a originalidade.","http://riomonumentos.com/cadastro/uploads/piso-em-pe-de-moleque.gif","desconhecido","século XIX","Rua Santo Alfredo (que desce do Largo das Neves), Rio de Janeiro - RJ","",""
175,"Piso Costanera","Os barbeiros, a partir de meados do séc. XVIII, em uma passagem recentemente aberta, que ia da rua Direita (Primeiro de Março) até a do Carmo. Foi aberto no período colonial pela Ordem Terceira do Carmo. É calçado com blocos de pedra, com a calha no centro para o escoamento das águas.","http://riomonumentos.com/cadastro/uploads/piso-costanera.jpg","desconhecido","século XVIII, começa a abertura em 1752 por ordem da Câmara Municipal","Beco dos Barbeiros, Rio de Janeiro - RJ","",""
176,"Arco do Teles","Trata-se para comunicar a antiga Praça do Carmo (atual Praça XV de Novembro) e a rua da Cruz (atual rua do Ouvidor). O nome pelo qual é conhecido deve a sua origem aos Teles de Meneses, proprietários de prédios no local. Em 1790, um incêndio destruiu a maior parte da casa dos Teles de Meneses, restando apenas a parte que hoje constitui o Arco do Teles.","http://riomonumentos.com/cadastro/uploads/arco-dos-teles.jpg","projeto do brigadeiro José Fernandes Pinto Alpoim","século XVIII","Praça XV, Rio de Janeiro - RJ","",""
177,"Piso Costanera","Nome adotado a partir de 1767, quando da chegada do regimento Bragança, que ocupou os quartéis de São Bento, localizado nessa rua. O piso em blocos de pedra e a largura da caixa da rua caracterizam a ruela.","http://riomonumentos.com/cadastro/uploads/piso-costanera(beco-dos-bragancas).jpg","desconhecido","desconhecido","Beco dos Braganças, Rio de Janeiro - RJ","",""
178,"Pax (Paz)","Trata-se de uma coluna em mármore rosa de Verona, onde suportam quatro arandelas com a escultura em bronze representando a Paz.","http://riomonumentos.com/cadastro/uploads/pax(paz).jpg","Mário Matos","desconhecido","Praça Marechal Floriano, Rio de Janeiro - RJ","",""
179,"Piso de Costanera","Este beco é a rua mais estreita da cidade e se situa entre a Rua do Rosário e a Rua do Ouvidor. Tem este nome porque havia na rua duas cancelas que a fechavam a noite.","http://riomonumentos.com/cadastro/uploads/piso-de-costanera(beco-das-cancelas).jpg","desconhecido","desconhecido","Beco das Cancelas, Rio de Janeiro - RJ","",""
180,"Piso de Costanera","Este beco se localiza entre as ruas Primeiro de Março e do Carmo. Foi aberta por exigência da Câmara dos Vereadores.  O nome se deve a presença de barbeiros no local.","http://riomonumentos.com/cadastro/uploads/piso-de-costanera(beco-dos-barbeiros).jpg","desconhecido","desconhecido","Beco dos Barbeiros, Rio de Janeiro - RJ","",""
181,"Portão do Matadouro","Trata-se do pórtico do antigo matadouro da cidade, uma construção neoclássica.  A instalação desta construção tornou a área como Largo do Matadouro, que se tornou o fator de adensamento das cercanias. Em 1881, foi transferido para Santa Cruz.","http://riomonumentos.com/cadastro/uploads/portao-do-matadouro.jpg","desconhecido","1853","Praça da Bandeira, Rio de Janeiro - RJ","",""
182,"Esculturas do Chafariz do Monroe","Trata-se de grupo escultórico de carrara, reprodução das peças executadas por Cleve, Lepingola, Poutier e Gros, do Jardim de Versalhes, adquiridos da família Guinle e doadas para a decoração deste monumento.","http://riomonumentos.com/cadastro/uploads/esculturas-do-chafariz-do-monroe.jpg","desconhecido","1928","Praça do Monroe, Rio de Janeiro - RJ","",""
183,"Coronel Assunção","A homenagem trata-se de um busto em bronze do coronel, tendo cada lado do pedestal um canhão em bronze e de um lado tem um cão em posição de guarda, também em bronze e em tamanho natural. Este cão é o símbolo da antiga polícia militar, o conhecido Brutos, que pertenceu ao coronel.","http://riomonumentos.com/cadastro/uploads/coronel-assuncao.jpg","Ruffo Fanucchi","1954","Praça Coronel Assunção, Rio de Janeiro (Praça da Harmonia)","",""
184,"Coreto ","O coreto é uma estrutura em concreto no embasamento e pilares de madeira, porém sem cobertura. Em 2012, foi instalado um telhado de telhas francesas.","http://riomonumentos.com/cadastro/uploads/coreto .jpg","desconhecido","1978","Praça Coronel Assunção, Rio de Janeiro (Praça da Harmonia)","",""
185,"Chafariz da Mulher e o Menino","Este chafariz adornava uma estação de tratamento de água, no Bairro do Engenho, e foi doado à cidade do Rio de Janeiro e instalado nessa praça.","http://riomonumentos.com/cadastro/uploads/chafariz-da-mulher-e-o-menino.jpg","Henri-Frédéric Iselin","1963","Praça do Santo Cristo, Rio de Janeiro - RJ","",""
186,"Painel dos Direitos Humanos","O painel é um projeto social idealizado pela artista plástica francesa, cujo principal objetivo é divulgar a Declaração Universal dos Direitos Humanos em diversas cidades do mundo.","http://riomonumentos.com/cadastro/uploads/Painel Direitos Humanos - Morro.jpg","Françoise Schein","2005","Morro da Providência, Rio de Janeiro - RJ","",""
187,"Oratório ","Este oratório se assemelha às torres religiosas barrocas. Construído pelas mulheres dos soldados retornados de Canudos que se instalaram no Morro da Providência, dando origem a nossa primeira favela. Ali, entronizaram a imagem do Cristo.","http://riomonumentos.com/cadastro/uploads/oratorio.gif","desconhecido","1901","Morro da Providência, Rio de Janeiro - RJ","",""
188,"Escadaria ","Trata-se de uma construção que segue a inclinação natural do terreno, onde o calçamento é de blocos de granito e de paralelepípedo, sendo uma referência do bairro e da presença de Machado de Assis.","http://riomonumentos.com/cadastro/uploads/2-7-002.gif","desconhecido","desconhecido","Ladeira do Livramento, Rio de Janeiro - RJ","",""
189,"Ceres ","A escultura foi instalada no Cais, onde desembarcaria a Imperatriz Tereza Cristina. De estilo neoclássica em mármore de carrara, é uma do conjunto de quatro esculturas que são as primeiras peças em área pública da cidade. Foi transferida para o Jardim do Valongo quando de sua construção por Pereira Passos.","http://riomonumentos.com/cadastro/uploads/ceres.jpg","desconhecido","27 de janeiro de 1843 na atual Praça Barão de Tefé e em 1906 no Jardim do Valongo","Jardim do Valongo, Rio de Janeiro - RJ","",""
190,"Marte ","A escultura foi instalada no Cais, onde desembarcaria a Imperatriz Tereza Cristina. De estilo neoclássica em mármore de carrara, é uma do conjunto de quatro esculturas que são as primeiras peças em área pública da cidade. Foi transferida para o Jardim do Valongo quando de sua construção por Pereira Passos.","http://riomonumentos.com/cadastro/uploads/marte.jpg","desconhecido","27 de janeiro de 1843 na atual Praça Barão de Tefé e em 1906 no Jardim do Valongo","Jardim do Valongo, Rio de Janeiro - RJ","",""
191,"Mercúrio","A escultura foi instalada no Cais, onde desembarcaria a Imperatriz Tereza Cristina. De estilo neoclássica em mármore de carrara, é uma do conjunto de quatro esculturas que são as primeiras peças em área pública da cidade. Foi transferida para o Jardim do Valongo quando de sua construção por Pereira Passos.","http://riomonumentos.com/cadastro/uploads/mercurio.jpg","desconhecido","27 de janeiro de 1843 na atual Praça Barão de Tefé e em 1906 no Jardim do Valongo","Jardim do Valongo, Rio de Janeiro - RJ","",""
192,"Vênus ","A escultura foi instalada no Cais, onde desembarcaria a Imperatriz Tereza Cristina. De estilo neoclássica em mármore de carrara, é uma do conjunto de quatro esculturas que são as primeiras peças em área pública da cidade. Foi transferida para o Jardim do Valongo quando de sua construção por Pereira Passos.","http://riomonumentos.com/cadastro/uploads/venus.jpg","desconhecido","27 de janeiro de 1843 na atual Praça Barão de Tefé e em 1906 no Jardim do Valongo","Jardim do Valongo, Rio de Janeiro - RJ","",""
193,"Cascata do Jardim do Valongo","Trata-se de um trabalho em rocaille, construção de argamassa imitando pedras naturais, típico dos jardins românticos, construída no conjunto de todo o Jardim Suspenso do Valongo.","http://riomonumentos.com/cadastro/uploads/Cascata Jardim do Valongo-1.jpg","Luis Reis ","1906","Jardim do Valongo, Rio de Janeiro - RJ","",""
194,"Pedra do Sal","É um monumento histórico e religioso. O talho de uma rocha formando uma escada, executado por escravos para acesso a moradias.","http://riomonumentos.com/cadastro/uploads/5-12.jpg","desconhecido","século XVII","Rua Argemiro Bulção - Rio de Janeiro - RJ","",""
195,"Murada do Jardim do Valongo","Trata-se de uma murada de bloco de pedra revestida com argamassa, nela está inscrito em mármore a inauguracao do espaço.","http://riomonumentos.com/cadastro/uploads/murada-do-jardim-do-valongo.jpg","Luis Rei","1906","Rua Camerino, Rio de Janeiro - RJ","",""
196,"Nossa Senhora da Conceição","Esta imagem de N. S. da Conceição, em praça pública, foi realizada pela empresa Irmãos Bernadelli através de contribuição dos moradores dos bairros.","http://riomonumentos.com/cadastro/uploads/nossa-senhora-da-conceicao.jpg","desconhecido","1954","Praça Major Valo, Rio de Janeiro - RJ","",""
197,"Escadaria ","Escadaria em blocos maciços de gnaisse originais.","http://riomonumentos.com/wp-content/themes/seconserva/img/THUMB_fotos.jpg","Luis Rei","1906","Jardim do Valongo, Rio de Janeiro - RJ","",""
200,"Contenção de Pedra","Foi construído pelo Intendente Paulo Fernandes Vianna para a contenção e construção do Chafariz Paulo Fernandes.","http://riomonumentos.com/wp-content/themes/seconserva/img/THUMB_fotos.jpg","desconhecido","1816","Rua Frei Caneca, Rio de Janeiro - RJ","",""
202,"Labor (Trabalho) ","Trata-se de uma coluna em mármore rosa de Verona, onde suportam quatro arandelas com a escultura em bronze representando a Paz.","http://riomonumentos.com/wp-content/themes/seconserva/img/THUMB_fotos.jpg","Mário Matos","desconhecido","Praça Marechal Floriano, Rio de Janeiro - RJ","",""
203,"Princesa Isabel","A estátua em homenagem à princesa foi comemorativa aos 115 anos da abolição da escravidão no Brasil.","http://riomonumentos.com/cadastro/uploads/princesa-isabel.jpg","Edgar Duvivier","13 de maio de 2003","Av Princesa Isabel, Rio de Janeiro - RJ","",""
204,"Coelho Cintra","O busto foi uma homenagem dos moradores do bairro ao pai de Copacabana.","http://riomonumentos.com/cadastro/uploads/coelho-cintra.JPG","Laurindo Ramos","1958","Av Princesa Isabel , Rio de Janeiro - RJ","",""
205,"Chafarizes de Jorro Central (conjunto de 9 chafarizes separados)","Este conjunto foi o primeiro construído na cidade com lago seco, isto é, o jorro saindo de uma cisterna abaixo do nível do piso coberto.","http://riomonumentos.com/cadastro/uploads/chafarizes-de-jorro-central-(-conjunto-de-9-chafarizes-separados).jpg","Eng. Miguel Pena Sattaminu de Arruda","28 de maio de 2006","Av. Princesa Isabel, Rio de Janeiro - RJ","",""
206,"Visconde do Rio Branco","Esta homenagem foi erguida por uma subscrição pública que ficou a cargo da Viscondessa. Após sua morte, foi erguido o monumento.","http://riomonumentos.com/cadastro/uploads/visconde-do-rio-branco.jpg","Felix Charpentier","13 de maio de 1902 na Praça da Glória e em 1996 nesta praça","Praça Demétrio Ribeiro, Rio de Janeiro - RJ","",""
207,"Baleia","A escultura foi uma doação da empresa João Fortes Engenharia para a reurbanização da Praça Mauá.","http://riomonumentos.com/cadastro/uploads/baleia.jpg","Angelo Venosa","1988 na Praça Mauá e em 1998 na Av. Atlântica","Av Atlântica, Rio de Janeiro - RJ","",""
208,"Siqueira Campos","O monumento é o reconhecimento aos 18 combatentes que em 6 de julho de 1922, sob o comando do tenente Antônio de Siqueira Campos, saíram em marcha pela Avenida Atlântica, numa posição de revoltados quanto ao comando.","http://riomonumentos.com/cadastro/uploads/siqueira-campos.jpg","José Rangel","5 de julho em 1974","Av. Atlântica, Rio de Janeiro - RJ","",""
209,"Ibrahim Medina","O busto foi uma homenagem de amigos ao carioca.","http://riomonumentos.com/cadastro/uploads/ibrahim-medina.jpg","Porão D'Arte","1996","Av Atlantica, Rio de Janeiro - RJ","",""
210,"Iemanjá","A escultura foi inaugurada para os festejos de Iemanjá numa referência ao culto religioso carioca.","http://riomonumentos.com/cadastro/uploads/iemanja .jpg","Luiz Figueiredo","29 de dezembro de 1988","Av. Atlântica, Rio de Janeiro - RJ","",""
211,"Marco da Duplicação de Copacabana","O marco é comemorativo da inauguracao das obras do alargamento da Avenida Atlântica no governo Negrão de Lima.","http://riomonumentos.com/cadastro/uploads/marco-da-duplicacao-de-copacabana.jpg","desconhecido","14 de março de 1971","Av. Atlântica, Rio de Janeiro - RJ","",""
212,"Ari Barroso (Busto)","O monumento foi erguido em homenagem ao autor da música Aquarela do Brasil.","http://riomonumentos.com/cadastro/uploads/ari-barrosao.jpg","Edson Jannuzzi","13 de abril de 1974","Av. Atlântica, Rio de Janeiro - RJ","",""
213,"Carlos Drummond de Andrade","O monumento foi instalado em comemoração ao centenário do nascimento do poeta.","http://riomonumentos.com/cadastro/uploads/carlos-drumont-de-andrade.jpg","Leo Santana","30 de outubro de 2002","Av. Atlântica, 4018 - Rio de Janeiro - RJ","",""
214,"Edmundo Bittencourt","O busto foi uma homenagem dos amigos ao fundador do jornal Correio da Manhã.","http://riomonumentos.com/cadastro/uploads/ edmundo-bittencourt.jpg","Leão Veloso","20 de maio de 1951","Praça Edmundo Bittencourt, Rio de Janeiro - RJ","",""
215,"Einstein","A homenagem foi uma doação à cidade no centenário do seu nascimento.","http://riomonumentos.com/cadastro/uploads/einstein.jpg","Honório Peçanha","14 de março de 1979","Praça Edmundo Bittencourt, Rio de Janeiro - RJ","",""
216,"Comendador Peixoto","A homenagem","http://riomonumentos.com/cadastro/uploads/comendador-peixoto.jpg","Honório Peçanha","18 de dezembro de 1968 ","Praça Edmundo Bittencourt, Rio de Janeiro - RJ","",""
217,"Chafariz da Praça","Trata-se de chafariz de concreto armado com uma estrutura arrojada e escorrimento de água pelos vértices da construção.","http://riomonumentos.com/cadastro/uploads/peixoto11.jpg","Francisco Bolonha","década de 60 (século XX)","Praça Edmundo Bittencourt, Rio de Janeiro - RJ","",""
218,"Vitória","É uma escultura abstrata em bronze.","http://riomonumentos.com/cadastro/uploads/vitoria .JPG","Mazeredo","10 de abril de 1992","Praça do Lido","",""
219,"Irmãos Bernadelli","Trata-se de uma dupla homenagem aos irmãos Rodolfo e Henrique Bernadelli no centenário de Rodolfo.","http://riomonumentos.com/cadastro/uploads/ irmaos-bernadelli.jpg","Leão Veloso","18 de setembro de 1952","Praça do Lido","",""
220,"Sara Kubitschek","O monumento foi uma iniciativa da Associação Cultural Sara Kubitschek, em homenagem a sua patrona, para a comemoração do marco de adoção da praça pela Associação.","http://riomonumentos.com/cadastro/uploads/sara-kubischek.JPG","Mazeredo","27 de junho de 1999  ","Av. Nossa Senhora de Copacabana, 1120","",""
221,"Júlio de Noronha","O monumento é uma homenagem a um herói da Guerra do Paraguai.","http://riomonumentos.com/cadastro/uploads/julio-de-noronha.JPG","A. Braga","11 de junho de 1980","Praça Julio de Noronha, Rio de Janeiro - RJ","",""
222,"Obelisco do Alargamento de Copacabana","Trata-se de um marco oferecido pelos moradores de Copacabana à cidade.","http://riomonumentos.com/cadastro/uploads/obelisco-do-alargamento-de-copacabana.jpg","desconhecido","02 de julho de 1919","Praça Julio de Noronha, Rio de Janeiro - RJ","",""
223,"Castelo Branco","A estátua do ex-presidente Castelo Branco foi uma homenagem do povo e do governo do estado.","http://riomonumentos.com/cadastro/uploads/castelo-branco.jpg","Dante Croce","20 de setembro de 1964","Praça Julio de Noronha, Rio de Janeiro - RJ","",""
224,"Serzedelo Correia","A homenagem em busto foi realizada em reconhecimento ao seu trabalho como engenheiro, no governo do prefeito Pereira Passos, num reconhecimento dos moradores de Copacabana.","http://riomonumentos.com/cadastro/uploads/ serzedelo-correia.jpg","Rodolfo Bernadelli","6 de novembro de 1910","Praça Serzedelo Correia, Rio de Janeiro - RJ","",""
225,"Grande Quartzo Rosa","Foi instalado na reurbanização da praça após a obra do Metrô-Rio para propagar boas energias.","http://riomonumentos.com/cadastro/uploads/grande-quartzo-rosa.JPG","desconhecido","1995","Praça Cardeal Arcoverde, Rio de Janeiro - RJ, Rio de Janeiro - RJ","",""
226,"Menora","Foi idealizado pelo Vereador Gerson Bergher e o local determinado pela proximidade à primeira sinagoga do Rio de Janeiro.","http://riomonumentos.com/cadastro/uploads/menora .gif","desconhecido ","1995","Praça Cardeal Arcoverde, Rio de Janeiro - RJ","",""
227,"Painel dos Direitos Humanos","O painel tem como objetivo divulgar a Declaração Universal dos Direitos Humanos em diversas cidades do mundo.","http://riomonumentos.com/cadastro/uploads/Painel Direitos Humanos - Metrô.jpg","Françoise Schein","2002","Praça da Estação Siqueira Campos, Rio de Janeiro - RJ","",""
228,"Braguinha","Foi uma doação à cidade pela Unisys do Brasil para homenagear um ídolo do carnaval carioca.","http://riomonumentos.com/cadastro/uploads/braguinha .jpg","Otto Dumovich","19 de fevereiro de 2005","Praça Demétrio Ribeiro , Rio de Janeiro - RJ","",""
229,"Oratório a São Pedro","Um novo oratório foi implantado nesta data pela prefeitura para homenagear o protetor dos pescadores na tradicional colônia de pesca do Posto 6 de Copacabana.","http://riomonumentos.com/wp-content/themes/seconserva/img/THUMB_fotos.jpg","desconhecido","11 de dezembro de 2008","Avenida Atlântica, Rio de Janeiro - RJ","",""
230,"Dorival Caymmi","A homenagem a Dorival Caymmi foi uma solicitação da família à prefeitura da cidade, inspirada numa fotografia de Evandro Teixeira.","http://riomonumentos.com/cadastro/uploads/dorival-caymi.jpg","Otto Dumovich","11 de dezembro de 2008","Av. Atlântica, Rio de Janeiro - RJ","",""
231,"Ari Barroso (Estátua sentada)","Trata-se de uma solicitação dos moradores do bairro do Leme para homenagear o compositor que passou os últimos 40 anos no bairro.","http://riomonumentos.com/cadastro/uploads/ari-barroso.jpg","Leo Santana","19 de dezembro de 2003","Av. Atlântica, Rio de Janeiro - RJ","",""
232,"Bancos de Mosaico","Três bancos de concreto foram decorados, com quebras de azulejos, com desenhos formando um mosaico abstrato e colorido.","http://riomonumentos.com/cadastro/uploads/bancos-de-mosaico.jpg","Chica Granchi","2001","Av. Atlântica, Rio de Janeiro - RJ","",""
233,"Rei Alberto I","O monumento foi erguido em homenagem ao Rei que visitou o Brasil em 1920, num reconhecimento dos moradores de Copacabana.","http://riomonumentos.com/cadastro/uploads/rei-alberto-i.jpg","Laurindo Ramos","1922","Praça do Poeta, Rio de Janeiro - RJ","",""
234,"Arcos","Foi construído no período do vice-rei Marquês do Lavradio com objetivo de defender os invasores vindos da Zona Sul. ","http://riomonumentos.com/cadastro/uploads/arcos .jpg","desconhecido","executado no período de 1769 a 1779","Ladeira do Leme, Rio de Janeiro - RJ","",""
235,"Siqueira Campos","Trata-se de uma homenagem a uma das principais figuras do Levante dos 18 do Forte de 1922.","http://riomonumentos.com/cadastro/uploads/siqueira-campos.jpg","Bertazzoni","16 de julho de 1937","Praça Eugenio Franco, Rio de Janeiro - RJ","",""
236,"Ao Levante do Forte","Esse marco foi uma iniciativa para perpetuar a história da Revolta dos 18 do Forte de 1922.","http://riomonumentos.com/cadastro/uploads/ao-levante-do-forte.jpg","Honório Peçanha","05 de julho de 1944","Praça Eugenio Franco, Rio de Janeiro - RJ","",""
237,"Painel","Trata-se de uma reprodução do desenho de Millôr executado em azulejos para homenagear o frescobol.","http://riomonumentos.com/cadastro/uploads/painel- .jpg","Millôr Fernandes","1998","Av. Nossa Senhora de Copacabana, 1120","",""
238,"Mosaico de Pedra Portuguesa","Trata-se do maior mosaico do mundo, num desenho abstrato nas cores preta, branca e vermelha, simbolizando as três etnias que formaram o povo brasileiro.","http://riomonumentos.com/cadastro/uploads/mosaico-de-pedra-portuguesa.jpg","Roberto Burle Marx","desconhecido","Av. Atlântica, Rio de Janeiro - RJ","",""
239,"Relógio","Trata-se de uma construção com equipamento e de um relógio de quatro faces.","http://riomonumentos.com/cadastro/uploads/relogio .JPG","desconhecido ","1974","Rua Francisco Sá, 86, Copacabana, Rio de Janeiro - RJ","",""
240,"Castelo","Trata-se de uma construção de embelezamento do parque.","http://riomonumentos.com/cadastro/uploads/castelo .jpg","desconhecido ","1974","Rua Francisco Sá, 86, Copacabana, Rio de Janeiro - RJ","",""
241,"Relógio do Sol","É um relógio de origem milenar baseado no movimento do sol. Doado à cidade por Luiz Ernani Negrão.","http://riomonumentos.com/wp-content/themes/seconserva/img/THUMB_fotos.jpg","desconhecido ","19 de setembro de 1985","Parque Estadual da Chacrinha, Rio de Janeiro - RJ","",""
242,"Oratório","Trata-se da imagem da Santa envolta em um oratório fixado na pedra da encosta.","http://riomonumentos.com/cadastro/uploads/oratorio  .JPG","desconhecido ","5 de abril de 1973","Tunel Sá Freire, Rio de Janeiro - RJ","",""
243,"Embocadura","Trata-se de uma embocadura art-decor que recebeu diversas alterações, mas mantendo seu estilo.","http://riomonumentos.com/cadastro/uploads/embocadura .jpg","desconhecido ","1927","Túnel Velho","",""
244,"Calçada da Fama","Trata-se de placas de granito preto, na forma de uma estrela, com o nome do homenageado gravado em baixo relevo. Foram fixadas, a princípio, 15 personalidades do bairro. Foi uma iniciativa dos moradores e contou com o apoio da prefeitura à época.","http://riomonumentos.com/cadastro/uploads/calcada-da-fama.JPG","desconhecido ","2004","Praça do Lido","",""
245,"Monumento ao Descobrimento do Brasil","A inauguracao do monumento foi uma das festividades comemorativas do quarto centenário do Descobrimento do Brasil, celebradas no ano de 1900. O Monumento mede 10 metros e homenageia o comandante da frota que aportou no Brasil em 1500, Pedro Álvares Cabral, o escrivão da frota, Pero Vaz de Caminha, e o capelão de morde, Frei Henrique do Coimbra, que foi o celebrante da primeira missa.","http://riomonumentos.com/cadastro/uploads/monumento-ao-descobrimento-do-brasil.jpg","Rodolfo Bernadelli","13 de maio de 1902","Largo da Glória , Rio de Janeiro - RJ","",""
246,"Baden-Powell","O monumento foi uma iniciativa da União dos Escoteiros do Brasil ao Escoteiro Chefe Mundial.","http://riomonumentos.com/cadastro/uploads/baden-power.jpg","Vincenzo Larocca","28 de julho de 1960","Praça Luis de Camões, Rio de Janeiro - RJ","",""
247,"São Francisco de Assis","A estátua de São Francisco foi uma doação do Sr. Amaro da Silveira à prefeitura para adornar a praça no então conhecido campo do Russel.","http://riomonumentos.com/cadastro/uploads/sao-francisco-de-assis.jpg","Eduardo Sá","03 de outubro de 1927","Praça Luis de Camões, Rio de Janeiro - RJ","",""
248,"Raimundo Teixeira Mendes","Teixeira Mendes foi homenageado na cidade por sua participação no movimento positivista, influenciado por Benjamin Constant e, principalmente, na defesa dos princípios abolicionistas e republicanos.","http://riomonumentos.com/cadastro/uploads/raimundo-teixeira-mendes.jpg","Bruno Giorgi","19 de novembro de 1977","Praça Luis de Camões, Rio de Janeiro - RJ","",""
249,"Lasar Segall","Trata-se de uma homenagem ao pintor que foi um dos pioneiros da arte moderna entre os brasileiros e nunca deixou de elogiar as belezas de nossa terra. ","http://riomonumentos.com/cadastro/uploads/lazar-segall.JPG","Liuba Wolf","11 de setembro de 1964","Praça Luis de Camões, Rio de Janeiro - RJ","",""
250,"Alberto de Oliveira","Alberto de Oliveira é um dos principais poetas parnasianos. Por sua obra, está homenageado na cidade. ","http://riomonumentos.com/wp-content/themes/seconserva/img/THUMB_fotos.jpg","Petrus Verdier","1927","Praça Luis de Camões, Rio de Janeiro - RJ","",""
251,"Escoteiro","O monumento foi oferecido pelas crianças do Chile às crianças brasileiras para corresponder à amizade do Brasil ao socorrer as vítimas do terremoto de Coquimbo e Atacama. ","http://riomonumentos.com/cadastro/uploads/escoteiro .JPG","Fernando Thauby","20 de dezembro de 1923, na Avenida Beira Mar, e em frente a rua em 02 de dezembro","Praça Luis de Camões, Rio de Janeiro - RJ","",""
252,"Pereira Carneiro","O monumento foi inaugurado na Praça Marechal Âncora e depois transferido para essa praça. Trata-se de uma homenagem ao jornalista e incentivador da aviação no Brasil.","http://riomonumentos.com/cadastro/uploads/pereira-carneiro.JPG","E. Bertozzi","desconhecida","Praça Luis de Camões, Rio de Janeiro - RJ","",""
253,"Almirante Barroso","Este monumento foi inaugurado em 1909, na Praça Luís de Camões na Glória. Com as obras do Metrô, o monumento foi transferido para a Praça Paris, onde se encontra desde então.","http://riomonumentos.com/cadastro/uploads/almirante-barroso.jpg","Correia Lima","19 de novembro de 1909","Praça Paris, Rio de Janeiro - RJ","",""
254,"Rodolfo de Amoedo","Trata-se de uma homenagem ao professor e diretor da Escola de Belas Artes, que fez discípulos como: Eliseu Visconti, Lucílio de Albuquerque e Chamberland.","http://riomonumentos.com/wp-content/themes/seconserva/img/THUMB_fotos.jpg","Correia Lima","1940","Praça Luis de Camões, Rio de Janeiro - RJ","",""
255,"Varnhagem","Trata-se de uma homenagem realizada pelo Instituto Histórico e Geográfico Brasileiro em comemoração a sua fundação.","http://riomonumentos.com/cadastro/uploads/varnhagem .JPG","Jose Otávio Correia Lima","21 de outubro de 1938","Praça Paris, Rio de Janeiro - RJ","",""
256,"Alfredo Agache","O monumento é uma homenagem da Associação dos Artistas Brasileiros, do Clube de Engenharia e do Comitê Nacional de Urbanista.","http://riomonumentos.com/cadastro/uploads/alfredo-agache.jpg","Heitor Usai","1992","Praça Paris, Rio de Janeiro - RJ","",""
257,"Vera Janacopulos","A homenagem partiu de sua irmã para imortalizar a criadora de obras vocais da música clássica moderna. ","http://riomonumentos.com/cadastro/uploads/vera-janacopulis.jpg","Adriana Janacopulos","20 de fevereiro de 1958","Praça Paris, Rio de Janeiro - RJ","",""
258,"Candido Mendes","Trata-se de uma homenagem a quem exerceu diversas funções em instituições de ensino e pesquisa nas áreas de sociologia e direito, além de representante do Brasil em diversas ocasiões em reuniões e organismos internacionais.","http://riomonumentos.com/cadastro/uploads/candido-mendes.JPG","Benevenuto Berna","24 de março de 1982, na Rua 7 de setembro, e 24 de março de 2001, na Praça Paris.","Praça Paris, Rio de Janeiro - RJ","",""
259,"Carmem Gomes","A homenagem à cantora lírica brasileira é uma inciativa dos artistas líricos brasileiros, que assim lhe prestaram a homenagem.","http://riomonumentos.com/cadastro/uploads/carmem-gomes.jpg","desconhecido ","4 de março de 1958","Praça Paris, Rio de Janeiro - RJ","",""
260,"Afonso Celso","Trata-se de uma homenagem ao membro fundador da Academia Brasileira de Letras.","http://riomonumentos.com/cadastro/uploads/afonso-celso .JPG","L. Ramos","31 de janeiro de 1960","Praça Paris, Rio de Janeiro - RJ","",""
261,"Reis e Silva","O monumento a Elias Reis e Silva é uma homenagem para imortalizar o cantor lírico nacional, um dos nossos principais tenores.","http://riomonumentos.com/cadastro/uploads/reis-e-silva.JPG","Rodolfo Bernadelli","desconhecida","Praça Paris, Rio de Janeiro - RJ","",""
262,"Clóvis Beviláqua","O monumento é uma homenagem a quem organizou o projeto do Código Civil Brasileiro e representou o Brasil no Tribunal de Haia.","http://riomonumentos.com/cadastro/uploads/clovis-bevilaqua.jpg","Honório Peçanha","dezembro de 1943","Praça Paris, Rio de Janeiro - RJ","",""
263,"Felino Deitado","Trata-se uma escultura em mármore de carrara representando um felino.","http://riomonumentos.com/cadastro/uploads/felino-deitado.jpg","H. Peyrol","1929","Praça Paris, Rio de Janeiro - RJ","",""
264,"Felino em Pé","Trata-se uma escultura em mármore de carrara representando um felino.","http://riomonumentos.com/cadastro/uploads/felino-em-pe.JPG","H. Peyrol","1929","Praça Paris, Rio de Janeiro - RJ","",""
265,"Verão","Trata-se de um conjunto escultórico representando as estações do ano: verão, inverno, primavera e outono. Essas peças são réplicas das existentes no Jardim de Versailles.","http://riomonumentos.com/cadastro/uploads/verao .JPG","desconhecido","1929","Praça Paris, Rio de Janeiro - RJ","",""
266,"Inverno","Trata-se de um conjunto escultórico representando as estações do ano: verão, inverno, primavera e outono. Essas peças são réplicas das existentes no Jardim de Versailles.","http://riomonumentos.com/cadastro/uploads/inverno .jpg","desconhecido","inaugurada em 1929","Praça Paris, Rio de Janeiro - RJ","",""
267,"Primavera","Trata-se de um conjunto escultórico representando as estações do ano: verão, inverno, primavera e outono. Essas peças são réplicas das existentes no Jardim de Versailles.","http://riomonumentos.com/cadastro/uploads/primavera .JPG","desconhecido","1929","Praça Paris, Rio de Janeiro - RJ","",""
268,"Outono","Trata-se de um conjunto escultórico representando as estações do ano: verão, inverno, primavera e outono. Essas peças são réplicas das existentes no Jardim de Versailles.","http://riomonumentos.com/cadastro/uploads/outono .jpg","desconhecido","1929","Praça Paris, Rio de Janeiro - RJ","",""
269,"Chafariz dos Golfinhos","Trata-se de um conjunto escultórico representando golfinhos que jorram água. São reproduções das existentes no Jardim de Versailles.","http://riomonumentos.com/cadastro/uploads/chafariz-dos-golfinhos.jpg","desconhecido","1929","Praça Paris, Rio de Janeiro - RJ","",""
270,"Relógio da Glória","Situado no extremo da balaustrada de cantaria, está instalado um relógio da marca 'Krussman' com quatro mostradores luminosos.","http://riomonumentos.com/cadastro/uploads/relogio-da-gloria.jpg","desconhecido","15 de abril de 1905","Rua da Glória, Rio de Janeiro - RJ","",""
271,"Murada da Glória","A murada em cantaria é composta por balaústres de ferro fundido. Esta balaustrada foi executada para a Praça Tiradentes, quando recebeu seu primeiro projeto paisagístico em 1894. Na administração de Pereira Passos, esta foi retirada e removida para esse local.","http://riomonumentos.com/cadastro/uploads/murada-da-gloria.jpg","desconhecido","15 de abril de 1905","Rua da Glória, Rio de Janeiro - RJ","",""
272,"Chafariz da Glória","Foi executado por iniciativa do Marquês do Lavradio, quando as águas da Baía da Guanabara chegaram perto dele, junto à encosta do Morro do Desterro, atual Santa Tereza. Em 1905, o prefeito Pereira Passos imprimiu algumas alterações, acrescentando, na parte superior, um outro muro.","http://riomonumentos.com/cadastro/uploads/chafariz-da-gloria .jpg","desconhecido","1772","Rua da Glória, Rio de Janeiro - RJ","",""
273,"Chafariz de São Sebastião","Trata-se da homenagem ao santo padroeiro da cidade do Rio de Janeiro. O monumento foi erguido pelo Instituto Histórico e Geográfico Brasileiro, que teve o apoio do Arcebispo do Rio, Cardeal D. Jaime Câmara, e do governador, Carlos Lacerda.","http://riomonumentos.com/cadastro/uploads/chafariz-de-sao-sebastiao.JPG","Dante Grocce","21 de agosto de 1965","Praça Luis de Camões, Rio de Janeiro - RJ","",""
274,"Memorial a Getúlio Vargas","O memorial é composto por um espelho de água com dois obeliscos de mármore branco e um espaço subterrâneo, onde estão objetos de Getúlio Vargas. Poucos metros à frente do lago, está o grande pedestal com seu busto.  ","http://riomonumentos.com/cadastro/uploads/memorial-a-getulio-vargas.jpg","Henock de Almeida","24 de agosto de 2004. O busto é de Joás Pereira dos Passos.","Praça Luis de Camões, Rio de Janeiro - RJ","",""
275,"Abertura dos Portos","Trata-se de um conjunto escultórico composto por duas escadarias, que dão acesso a Rua do Russel, e balaustrada em ferro fundido com luminárias. Duas figuras femininas em bronze representam o Comércio e Navegação. Essa obra foi uma iniciativa da Associação Comercial do Rio de Janeiro e a obra foi inaugurada no centenário da Abertura dos Portos. ","http://riomonumentos.com/cadastro/uploads/abertura-dos-portos.jpg","desconhecido ","28 de janeiro de 1908","Rua Juarez Távora, Rio de Janeiro - RJ","",""
